"","lon","lat","address"
"1",-119.4179324,36.778261,"california, usa"
"2",-95.712891,37.09024,"united states"
"3",-104.990251,39.7392358,"denver, co, usa"
"4",-111.5764087,40.2532608,"forest rd 027, utah, usa"
"5",-87.6297982,41.8781136,"chicago, il, usa"
"6",-121.4943996,38.5815719,"sacramento, ca, usa"
"7",-78.548621,35.3821067,"benson, nc 27504, usa"
"8",-90.4564358,39.6297869,"6 il-106, winchester, il 62694, usa"
"9",-84.1052256,40.742551,"lima, oh, usa"
"10",-88.1451519,41.7870209,"127 e. ogden avenue, jewel-osco, naperville, il 60563, united states"
"11",-90.5389662,41.8239952,"dewitt, ia 52742, usa"
"12",-95.712891,37.09024,"united states"
"13",-71.0588801,42.3600825,"boston, ma, usa"
"14",-74.0059728,40.7127753,"new york, ny, usa"
"15",-95.712891,37.09024,"united states"
"16",-121.4943996,38.5815719,"sacramento, ca, usa"
"17",-87.6876969,42.0450722,"evanston, il, usa"
"18",-79.9414266,37.2709704,"roanoke, va, usa"
"19",-99.9018131,31.9685988,"texas, usa"
"20",-81.5190053,41.0814447,"akron, oh, usa"
"21",-115.1398296,36.1699412,"las vegas, nv, usa"
"22",-118.1937395,33.7700504,"long beach, ca, usa"
"23",-86.80249,33.5206608,"birmingham, al, usa"
"24",-86.158068,39.768403,"indianapolis, in, usa"
"25",-122.4194155,37.7749295,"san francisco, ca, usa"
"26",-95.712891,37.09024,"united states"
"27",-112.1287861,33.5101648,"3300 w camelback rd, phoenix, az 85017, usa"
"28",-74.4056612,40.0583238,"new jersey, usa"
"29",-95.712891,37.09024,"united states"
"30",-77.0947092,38.984652,"bethesda, md, usa"
"31",-79.5443842,40.3011618,"14 w 2nd st, greensburg, pa 15601, usa"
"32",-115.1335806,36.1140974,"1495 e flamingo rd, las vegas, nv 89119, usa"
"33",-81.9178997,28.0291036,"1000 longfellow blvd, lakeland, fl 33801, usa"
"34",-82.05077,29.063309,"6006 se front rd, belleview, fl 34420, usa"
"35",-87.8289548,42.1275267,"northbrook, il 60062, usa"
"36",-89.5685606,42.9929065,"milky way, verona, wi 53593, usa"
"37",-82.4571776,27.950575,"tampa, fl, usa"
"38",-95.712891,37.09024,"united states"
"39",-117.140544,32.755681,"2232 el cajon blvd, san diego, ca 92104, usa"
"40",-122.3032365,40.5092434,"6640 lockheed dr, redding, ca 96002, usa"
"41",-83.9811014,34.1140497,"2505 mill center pkwy, buford, ga 30518, usa"
"42",-81.5157535,27.6648274,"florida, usa"
"43",-90.2590112,29.9922012,"louis armstrong new orleans international airport (msy), 900 airline dr, kenner, la 70062, usa"
"44",-79.0192997,35.7595731,"north carolina, usa"
"45",-71.3824374,42.4072107,"massachusetts, usa"
"46",-95.3698028,29.7604267,"houston, tx, usa"
"47",-86.158068,39.768403,"indianapolis, in, usa"
"48",-79.9667766,40.4259915,"2715 sarah st, pittsburgh, pa 15203, usa"
"49",-77.0368707,38.9071923,"washington, dc, usa"
"50",-99.9018131,31.9685988,"texas, usa"
"51",-79.9639145,40.4394832,"3333 fifth ave, pittsburgh, pa 15213, usa"
"52",-95.712891,37.09024,"united states"
"53",-74.0059728,40.7127753,"new york, ny, usa"
"54",-99.9018131,43.9695148,"south dakota, usa"
"55",-71.0588801,42.3600825,"boston, ma, usa"
"56",-78.458708,38.253749,"165 earth way dr, stanardsville, va 22973, usa"
"57",-75.1652215,39.9525839,"philadelphia, pa, usa"
"58",-97.7430608,30.267153,"austin, tx, usa"
"59",-118.2200712,33.8958492,"compton, ca, usa"
"60",-74.4056612,40.0583238,"new jersey, usa"
"61",-96.7969879,32.7766642,"dallas, tx, usa"
"62",-149.0729714,62.4113634,"west coast, usa"
"63",-118.2436849,34.0522342,"los angeles, ca, usa"
"64",-121.7369944,37.3814513,"san jose, ca 95127, usa"
"65",-86.1274888,40.0428151,"westfield, in, usa"
"66",-88.7878678,43.7844397,"wisconsin, usa"
"67",-108.5506486,39.0638705,"grand junction, co, usa"
"68",-82.907123,40.4172871,"ohio, usa"
"69",-107.4338866,32.4507852,"co rd a021, deming, nm 88030, usa"
"70",-95.712891,37.09024,"united states"
"71",-90.0715323,29.9510658,"new orleans, la, usa"
"72",-81.5157535,27.6648274,"florida, usa"
"73",-95.3698028,29.7604267,"houston, tx, usa"
"74",-77.0340315,38.9031004,"1015 15th st nw #750, washington, dc 20005, usa"
"75",-96.630936,39.662667,"1039 vista rd, blue rapids, ks 66411, usa"
"76",-97.7430608,30.267153,"austin, tx, usa"
"77",-122.4874304,48.7175061,"donovan ave, bellingham, wa 98225, usa"
"78",-116.419389,34.9592083,"southern california, ca, usa"
"79",-97.4394777,35.2225668,"norman, ok, usa"
"80",-94.658108,39.022807,"5835 lamar ave, mission, ks 66202, usa"
"81",-73.7562317,42.6525793,"albany, ny, usa"
"82",-111.5764087,40.2532608,"forest rd 027, utah, usa"
"83",-81.0348144,34.0007104,"columbia, sc, usa"
"84",-74.0059728,40.7127753,"new york, ny, usa"
"85",-122.286865,38.2975381,"napa, ca, usa"
"86",-92.3425775,42.492786,"waterloo, ia, usa"
"87",-71.0588801,42.3600825,"boston, ma, usa"
"88",-117.6508876,34.0633443,"ontario, ca, usa"
"89",-84.8413056,33.9244531,"dallas, ga, usa"
"90",-94.658108,39.022807,"5835 lamar ave, mission, ks 66202, usa"
"91",-83.1285242,40.5886699,"marion, oh 43302, usa"
"92",-81.5157535,27.6648274,"florida, usa"
"93",-91.1403196,30.4582829,"baton rouge, la, usa"
"94",-85.6023643,44.3148443,"michigan, usa"
"95",-83.9844416,34.5278618,"82 college cir, dahlonega, ga 30597, usa"
"96",-122.1172664,37.4055023,"440 cesano ct #306, palo alto, ca 94306, usa"
"97",-122.435965,37.7218132,"london st, san francisco, ca 94112, usa"
"98",-77.6598376,43.2022038,"2515 mt read blvd, rochester, ny 14615, usa"
"99",-93.2009998,44.9374831,"twin cities, mn, usa"
"100",-106.1007279,34.7394776,"co rd a039, estancia, nm 87016, usa"
"101",-70.1545818,45.3596723,"hunter, west forks, me 04985, usa"
"102",-88.3200715,41.7605849,"aurora, il, usa"
"103",-122.2605222,37.5071591,"san carlos, ca, usa"
"104",-74.4056612,40.0583238,"new jersey, usa"
"105",-123.8264512,46.5180824,"pacific county, wa, usa"
"106",-75.1926937,40.1416782,"fort washington, pa, usa"
"107",-86.1349019,40.2671941,"indiana, usa"
"108",-95.712891,37.09024,"united states"
"109",-122.0651819,37.9100783,"walnut creek, ca, usa"
"110",-122.4014193,37.4337342,"san mateo county, ca, usa"
"111",-79.0192997,35.7595731,"north carolina, usa"
"112",-81.0998342,32.0835407,"savannah, ga, usa"
"113",-93.2619202,44.9725062,"701 park ave, minneapolis, mn 55415, usa"
"114",-76.3036051,36.860402,"825 fairfax ave, norfolk, va 23507, usa"
"115",-118.483332,34.156855,"16055 ventura blvd #630, encino, ca 91436, usa"
"116",-81.6943605,41.49932,"cleveland, oh, usa"
"117",-90.0715323,29.9510658,"new orleans, la, usa"
"118",-122.2913078,37.8271784,"san francisco bay area, ca, usa"
"119",-93.2650108,44.977753,"minneapolis, mn, usa"
"120",-121.6696689,36.7757907,"prunedale, ca, usa"
"121",-76.6121893,39.2903848,"baltimore, md, usa"
"122",-74.0059728,40.7127753,"new york, ny, usa"
"123",-71.0588801,42.3600825,"boston, ma, usa"
"124",-81.1637245,33.836081,"south carolina, usa"
"125",-96.7969879,32.7766642,"dallas, tx, usa"
"126",-74.0018051,40.4031645,"monmouth hills, middletown, nj 07716, usa"
"127",-117.7499909,34.055103,"pomona, ca, usa"
"128",-77.017983,38.9812717,"baltimore ave, takoma park, md 20912, usa"
"129",-84.3879824,33.7489954,"atlanta, ga, usa"
"130",-119.4179324,36.778261,"california, usa"
"131",-82.6501332,34.5034394,"anderson, sc, usa"
"132",-89.4012302,43.0730517,"madison, wi, usa"
"133",-77.4360481,37.5407246,"richmond, va, usa"
"134",-72.307869,43.7153482,"norwich, vt, usa"
"135",-80.8431267,35.2270869,"charlotte, nc, usa"
"136",-95.7257968,32.3593117,"mars, tx 75778, usa"
"137",-149.4936733,64.2008413,"alaska, usa"
"138",-115.1398296,36.1699412,"las vegas, nv, usa"
"139",-80.4549026,38.5976262,"west virginia, usa"
"140",-74.2776468,40.6081591,"rahway, nj 07065, usa"
"141",-81.378447,40.7989473,"canton, oh, usa"
"142",-122.9006951,47.0378741,"olympia, wa, usa"
"143",-117.1610838,32.715738,"san diego, ca, usa"
"144",-77.0483959,38.9028939,"2175 k st nw, washington, dc 20037, usa"
"145",-97.3516558,32.7732044,"tarrant county, tx, usa"
"146",-79.0558445,35.9131996,"chapel hill, nc, usa"
"147",-83.985,42.43472,"hell, mi 48169, usa"
"148",-84.3879824,33.7489954,"atlanta, ga, usa"
"149",-97.6836384,32.9659566,"springtown, tx 76082, usa"
"150",-118.344822,34.064049,"618 s detroit st, los angeles, ca 90036, usa"
"151",-94.5785667,39.0997265,"kansas city, mo, usa"
"152",-77.0909809,38.8816208,"arlington county, arlington, va, usa"
"153",-93.6091064,41.6005448,"des moines, ia, usa"
"154",-80.6495194,41.0997803,"youngstown, oh, usa"
"155",-119.4179324,36.778261,"california, usa"
"156",-111.5764087,40.2532608,"forest rd 027, utah, usa"
"157",-85.6023643,44.3148443,"michigan, usa"
"158",-74.0059728,40.7127753,"new york, ny, usa"
"159",-81.1637245,33.836081,"south carolina, usa"
"160",-96.7969879,32.7766642,"dallas, tx, usa"
"161",-82.5436722,27.763383,"tampa bay, florida, usa"
"162",-80.1917902,25.7616798,"miami, fl, usa"
"163",-122.0873174,37.7086449,"3649 swallow ct, castro valley, ca 94546, usa"
"164",-83.9207392,35.9606384,"knoxville, tn, usa"
"165",-84.2963223,37.568694,"berea, ky, usa"
"166",-77.4360481,37.5407246,"richmond, va, usa"
"167",-94.6169012,38.966673,"leawood, ks, usa"
"168",-121.4943996,38.5815719,"sacramento, ca, usa"
"169",-81.655651,30.3321838,"jacksonville, fl, usa"
"170",-97.0403352,32.8998091,"dfw international airport (dfw), 2400 aviation dr, dfw airport, tx 75261, usa"
"171",-77.0368707,38.9071923,"washington, dc, usa"
"172",-74.0059728,40.7127753,"new york, ny, usa"
"173",-85.6023643,44.3148443,"michigan, usa"
"174",-81.655651,30.3321838,"jacksonville, fl, usa"
"175",-119.4179324,36.778261,"california, usa"
"176",-81.5157535,27.6648274,"florida, usa"
"177",-122.4194155,37.7749295,"san francisco, ca, usa"
"178",-77.0365298,38.8976763,"1600 pennsylvania ave nw, washington, dc 20500, usa"
"179",-95.712891,37.09024,"united states"
"180",-89.2108873,31.6977723,"26 ms-28, laurel, ms 39443, usa"
"181",-118.4003563,34.0736204,"beverly hills, ca, usa"
"182",-77.0909809,38.8816208,"arlington county, arlington, va, usa"
"183",-77.0861753,38.707982,"3200 mount vernon hwy, mt vernon, va 22121, usa"
"184",-77.2310925,38.9187222,"tysons, va, usa"
"185",-77.4874416,39.0437567,"ashburn, va, usa"
"186",-77.059885,38.835719,"101 leadbeater st, alexandria, va 22305, usa"
"187",-77.0368707,38.9071923,"washington, dc, usa"
"188",-77.1963703,38.8303905,"annandale, va, usa"
"189",-71.2356113,42.3764852,"waltham, ma, usa"
"190",-111.8412502,33.3061605,"chandler, az, usa"
"191",-86.8752869,40.4167022,"lafayette, in, usa"
"192",-79.778127,36.1432586,"4215 yanceyville rd x, browns summit, nc 27214, usa"
"193",-82.9000751,32.1656221,"georgia, usa"
"194",-107.4338866,32.4507852,"co rd a021, deming, nm 88030, usa"
"195",-75.4816362,40.2773517,"9 pa-73, zieglerville, pa 19492, usa"
"196",-83.6129939,42.2411499,"ypsilanti, mi, usa"
"197",-94.3096871,41.8460962,"jamaica, ia 50128, usa"
"198",-81.0348144,34.0007104,"columbia, sc, usa"
"199",-87.964925,41.5992209,"il-7, illinois, usa"
"200",-94.658108,39.022807,"5835 lamar ave, mission, ks 66202, usa"
"201",-96.8059406,32.9072422,"11661 preston road # 154, dallas, tx 75230, united states"
"202",-121.111293,38.942856,"3255 sunset terrace, auburn, ca 95602, usa"
"203",-80.0905465,26.5317866,"boynton beach, fl, usa"
"204",-73.9441579,40.6781784,"brooklyn, ny, usa"
"205",-81.3601498,28.5379491,"fl-408, orlando, fl, usa"
"206",-87.6297982,41.8781136,"chicago, il, usa"
"207",-110.926479,32.2217429,"tucson, az, usa"
"208",-81.7229086,41.4047742,"parma, oh, usa"
"209",-95.712891,37.09024,"united states"
"210",-91.8318334,35.20105,"arkansas, usa"
"211",-88.0070315,43.0166806,"west allis, wi, usa"
"212",-85.6023643,44.3148443,"michigan, usa"
"213",-79.6735841,41.6262707,"unknown, 101 w spring st, titusville, pa 16354, usa"
"214",-95.3698028,29.7604267,"houston, tx, usa"
"215",-118.2436849,34.0522342,"los angeles, ca, usa"
"216",-78.6381787,35.7795897,"raleigh, nc, usa"
"217",-96.1027371,29.3116366,"wharton, tx 77488, usa"
"218",-84.1916069,39.7589478,"dayton, oh, usa"
"219",-86.7816016,36.1626638,"nashville, tn, usa"
"220",-118.2436849,34.0522342,"los angeles, ca, usa"
"221",-77.4310992,38.8942786,"chantilly, va, usa"
"222",-94.658108,39.022807,"5835 lamar ave, mission, ks 66202, usa"
"223",-95.3698028,29.7604267,"houston, tx, usa"
"224",-80.3997748,26.1003654,"weston, fl, usa"
"225",-97.7430608,30.267153,"austin, tx, usa"
"226",-82.907123,40.4172871,"ohio, usa"
"227",-84.2029922,39.4353373,"lebanon, oh 45036, usa"
"228",-122.2913078,37.8271784,"san francisco bay area, ca, usa"
"229",-89.9366498,35.919568,"alabama st & mississippi ave, blytheville, ar 72315, usa"
"230",-96.7969879,32.7766642,"dallas, tx, usa"
"231",-97.0403352,32.8998091,"dfw international airport (dfw), 2400 aviation dr, dfw airport, tx 75261, usa"
"232",-95.712891,37.09024,"united states"
"233",-99.8124935,29.8851459,"real county, tx, usa"
"234",-97.0403352,32.8998091,"dfw international airport (dfw), 2400 aviation dr, dfw airport, tx 75261, usa"
"235",-96.7969879,32.7766642,"dallas, tx, usa"
"236",-121.8863286,37.3382082,"san jose, ca, usa"
"237",-76.6121893,39.2903848,"baltimore, md, usa"
"238",-95.712891,37.09024,"united states"
"239",-111.0937311,39.3209801,"utah, usa"
"240",-97.3307658,32.7554883,"fort worth, tx, usa"
"241",-97.4286988,37.6508529,"wichita dwight d. eisenhower national airport (ict), 2277 eisenhower airport pkwy, wichita, ks 67209, usa"
"242",-97.7430608,30.267153,"austin, tx, usa"
"243",-111.6709584,32.7558935,"arizona city, az 85123, usa"
"244",-78.7788498,35.7341718,"115 crescent commons suite 250, cary, nc 27518, usa"
"245",-75.749892,39.6826436,"83 e main st, newark, de 19711, usa"
"246",-119.7725868,36.7468422,"fresno, ca, usa"
"247",-79.9592134,40.5594832,"allison park, hampton township, pa, usa"
"248",-84.3896373,33.7517791,"50 lower alabama street #22, atlanta, ga 30303, usa"
"249",-80.1302936,25.7904697,"216 lincoln rd, miami beach, fl 33139, usa"
"250",-93.2650108,44.977753,"minneapolis, mn, usa"
"251",-95.712891,37.09024,"united states"
"252",-72.6850932,41.7637111,"hartford, ct, usa"
"253",-96.13446,41.0819432,"springfield, ne 68059, usa"
"254",-105.7820674,39.5500507,"colorado, usa"
"255",-95.6440493,29.7835917,"103 s texas 6, houston, tx 77079, usa"
"256",-83.1285242,40.5886699,"marion, oh 43302, usa"
"257",-90.0715323,29.9510658,"new orleans, la, usa"
"258",-78.8783689,42.8864468,"buffalo, ny, usa"
"259",-95.712891,37.09024,"united states"
"260",-149.9002778,61.2180556,"anchorage, ak, usa"
"261",-97.7430608,30.267153,"austin, tx, usa"
"262",-72.6699127,41.7314852,"901 wethersfield ave, hartford, ct 06114, usa"
"263",-71.467566,42.7653662,"nashua, nh, usa"
"264",-73.9464769,40.8115504,"harlem, new york, ny, usa"
"265",-119.4179324,36.778261,"california, usa"
"266",-120.8958242,38.8375215,"northern california, ca, usa"
"267",-119.4179324,36.778261,"california, usa"
"268",-122.3789554,37.6213129,"san francisco international airport (sfo), san francisco, ca 94128, usa"
"269",-104.6091409,38.2544472,"pueblo, co, usa"
"270",-80.634891,35.184371,"8832 brigadier ln, mint hill, nc 28227, usa"
"271",-94.1604605,36.0629711,"30 n block ave, fayetteville, ar 72701, usa"
"272",-76.6121893,39.2903848,"baltimore, md, usa"
"273",-77.0340315,38.9031004,"1015 15th st nw #750, washington, dc 20005, usa"
"274",-84.2946539,37.7478572,"richmond, ky, usa"
"275",-97.7430608,30.267153,"austin, tx, usa"
"276",-118.2973745,34.0130011,"1198 leighton ave, los angeles, ca 90037, usa"
"277",-91.6656232,41.9778795,"cedar rapids, ia, usa"
"278",-74.0657817,40.599802,"major ave, staten island, ny 10305, usa"
"279",-122.2416355,37.7652065,"alameda, ca, usa"
"280",-77.3133268,40.4732862,"your mom, lyons rd, millerstown, pa 17062, usa"
"281",-95.1545019,29.7119725,"tx-225, texas, usa"
"282",-72.6874023,44.4654332,"stowe, vt 05672, usa"
"283",-118.2436849,34.0522342,"los angeles, ca, usa"
"284",-89.3985283,40.6331249,"illinois, usa"
"285",-84.6505034,39.3122782,"ross, oh, usa"
"286",-95.712891,37.09024,"united states"
"287",-94.1800384,30.7918476,"corp of eng rd, woodville, tx 75979, usa"
"288",-73.7562317,42.6525793,"albany, ny, usa"
"289",-96.7969879,32.7766642,"dallas, tx, usa"
"290",-74.0059728,40.7127753,"new york, ny, usa"
"291",-119.4179324,36.778261,"california, usa"
"292",-96.7311034,43.5445959,"sioux falls, sd, usa"
"293",-102.4107493,34.2331373,"earth, tx 79031, usa"
"294",-95.712891,37.09024,"united states"
"295",-87.6297982,41.8781136,"chicago, il, usa"
"296",-97.8428927,30.0817231,"buda, tx 78610, usa"
"297",-74.2401609,40.8298006,"verona, nj, usa"
"298",-95.712891,37.09024,"united states"
"299",-74.2179326,43.2994285,"new york, usa"
"300",-91.9206505,44.9028713,"1801 wakanda st ne, menomonie, wi 54751, usa"
"301",-119.4179324,36.778261,"california, usa"
"302",-118.377493,34.075295,"8500 beverly blvd, los angeles, ca 90048, usa"
"303",-91.8318334,37.9642529,"missouri, usa"
"304",-105.7820674,39.5500507,"colorado, usa"
"305",-87.8411818,42.325578,"north chicago, il, usa"
"306",-105.5005483,40.1512114,"boulder county, co, usa"
"307",-74.4056612,40.0583238,"new jersey, usa"
"308",-79.9958864,40.4406248,"pittsburgh, pa, usa"
"309",-73.4975412,41.2840635,"ridgefield, ct 06877, usa"
"310",-78.8783689,42.8864468,"buffalo, ny, usa"
"311",-95.712891,37.09024,"united states"
"312",-122.4194155,37.7749295,"san francisco, ca, usa"
"313",-111.9738304,41.223,"ogden, ut, usa"
"314",-96.3344068,30.627977,"college station, tx, usa"
"315",-86.80249,33.5206608,"birmingham, al, usa"
"316",-90.0715323,29.9510658,"new orleans, la, usa"
"317",-86.158068,39.768403,"indianapolis, in, usa"
"318",-95.3698028,29.7604267,"houston, tx, usa"
"319",-122.6764815,45.5230622,"portland, or, usa"
"320",-122.4194155,37.7749295,"san francisco, ca, usa"
"321",-81.5157535,27.6648274,"florida, usa"
"322",-95.9979883,41.2523634,"omaha, ne, usa"
"323",-85.6023643,44.3148443,"michigan, usa"
"324",-73.5387341,41.0534302,"stamford, ct, usa"
"325",-90.0489801,35.1495343,"memphis, tn, usa"
"326",-80.8704362,35.5856598,"suite 14, 146 mooresville commons way, mooresville, nc 28117, united states"
"327",-84.3879824,33.7489954,"atlanta, ga, usa"
"328",-76.6121893,39.2903848,"baltimore, md, usa"
"329",-116.419389,38.8026097,"nevada, usa"
"330",-95.712891,37.09024,"united states"
"331",-80.8712059,39.7656311,"clarington, oh 43915, usa"
"332",-116.2146068,43.6187102,"boise, id, usa"
"333",-83.3884961,33.3267997,"eatonton, ga 31024, usa"
"334",-95.1765978,29.9988306,"atascocita, tx, usa"
"335",-81.5157535,27.6648274,"florida, usa"
"336",-77.4105409,39.4142688,"frederick, md, usa"
"337",-80.8431267,35.2270869,"charlotte, nc, usa"
"338",-122.4194155,37.7749295,"san francisco, ca, usa"
"339",-81.265606,28.5257005,"8600 el prado ave, orlando, fl 32825, usa"
"340",-85.6023643,44.3148443,"michigan, usa"
"341",-79.9958864,40.4406248,"pittsburgh, pa, usa"
"342",-77.0368707,38.9071923,"washington, dc, usa"
"343",-84.412014,33.7539971,"atlanta, ga 30314, usa"
"344",-75.1652215,39.9525839,"philadelphia, pa, usa"
"345",-74.0059728,40.7127753,"new york, ny, usa"
"346",-70.7840564,44.4906897,"oxford county, me, usa"
"347",-111.5116469,41.2816391,"wasatch range, united states"
"348",-81.9712719,34.9992469,"800 university way, spartanburg, sc 29303, usa"
"349",-77.1945247,41.2033216,"pennsylvania, usa"
"350",-82.3607965,34.7434066,"steel city, greenville, sc 29605, usa"
"351",-83.2113192,42.5467012,"birmingham, mi, usa"
"352",-119.4179324,36.778261,"california, usa"
"353",-73.67694,42.55444,"schodack center, ny 12033, usa"
"354",-77.0368707,38.9071923,"washington, dc, usa"
"355",-94.5785667,39.0997265,"kansas city, mo, usa"
"356",-106.2800242,43.4113604,"midwest, wy 82643, usa"
"357",-95.712891,37.09024,"united states"
"358",-87.7176849,42.0123816,"n, 3534 w touhy ave, skokie, il 60076, usa"
"359",-77.0359737,38.9640712,"6045 16th st nw, washington, dc 20011, usa"
"360",-115.1398296,36.1699412,"las vegas, nv, usa"
"361",-74.0059728,40.7127753,"new york, ny, usa"
"362",-86.902298,32.3182314,"alabama, usa"
"363",-81.5157535,27.6648274,"florida, usa"
"364",-118.9070887,34.1805403,"newbury park, thousand oaks, ca, usa"
"365",-83.1352843,42.4607319,"22801 woodward ave, ferndale, mi 48220, usa"
"366",-72.929624,41.306707,"238 college st, new haven, ct 06510, usa"
"367",-84.3879824,33.7489954,"atlanta, ga, usa"
"368",-106.2800242,43.4113604,"midwest, wy 82643, usa"
"369",-82.907123,40.4172871,"ohio, usa"
"370",-92.1735164,38.5767017,"jefferson city, mo, usa"
"371",-118.40853,33.9415889,"los angeles international airport (lax), 1 world way, los angeles, ca 90045, usa"
"372",-92.3082504,38.9211881,"2505 old 63 s, columbia, mo 65201, usa"
"373",-83.086444,40.106374,"7381 cimmaron station, columbus, oh 43235, usa"
"374",-116.9515856,47.7179578,"post falls, id 83854, usa"
"375",-107.4338866,32.4507852,"co rd a021, deming, nm 88030, usa"
"376",-122.7140548,38.440429,"santa rosa, ca, usa"
"377",-105.7820674,39.5500507,"colorado, usa"
"378",-86.158068,39.768403,"indianapolis, in, usa"
"379",-94.658108,39.022807,"5835 lamar ave, mission, ks 66202, usa"
"380",-90.1543554,38.4660038,"stemler cave woods nature preserve, columbia, il 62236, usa"
"381",-95.712891,37.09024,"united states"
"382",-91.0120878,38.5581072,"washington, mo, usa"
"383",-116.419389,38.8026097,"nevada, usa"
"384",-104.9416688,39.692037,"c, 1355 s colorado blvd, denver, co 80222, usa"
"385",-157.7208333,21.35,"waimƒÅnalo, hi 96795, usa"
"386",-90.0489801,35.1495343,"memphis, tn, usa"
"387",-91.9206505,44.9028713,"1801 wakanda st ne, menomonie, wi 54751, usa"
"388",-75.1652215,39.9525839,"philadelphia, pa, usa"
"389",-71.8022934,42.2625932,"worcester, ma, usa"
"390",-95.712891,37.09024,"united states"
"391",-105.0732844,33.3403963,"co rd e022, new mexico, usa"
"392",-85.6023643,44.3148443,"michigan, usa"
"393",-95.712891,37.09024,"united states"
"394",-95.712891,37.09024,"united states"
"395",-104.990251,39.7392358,"denver, co, usa"
"396",-85.7051116,42.2152042,"texas charter township, mi, usa"
"397",-70.6672621,41.9584457,"plymouth, ma, usa"
"398",-71.467566,42.7653662,"nashua, nh, usa"
"399",-94.4651684,37.112619,"e zora st, joplin, mo 64801, usa"
"400",-118.4225857,33.9667385,"1 loyola marymount university dr, los angeles, ca 90045, usa"
"401",-121.4943996,38.5815719,"sacramento, ca, usa"
"402",-95.712891,37.09024,"united states"
"403",-119.4179324,36.778261,"california, usa"
"404",-79.9958864,40.4406248,"pittsburgh, pa, usa"
"405",-84.3879824,33.7489954,"atlanta, ga, usa"
"406",-72.7420151,41.7620842,"west hartford, ct, usa"
"407",-77.0368707,38.9071923,"washington, dc, usa"
"408",-122.4194155,37.7749295,"san francisco, ca, usa"
"409",-81.4735257,28.4720521,"orlando, fl 32819, usa"
"410",-99.1414249,29.3474565,"hondo, tx 78861, usa"
"411",-77.0368707,38.9071923,"washington, dc, usa"
"412",-95.712891,37.09024,"united states"
"413",-77.947739,43.217117,"155 evergreen rd, brockport, ny 14420, usa"
"414",-74.7429384,40.2170534,"trenton, nj, usa"
"415",-114.7420408,44.0682019,"idaho, usa"
"416",-80.1917902,25.7616798,"miami, fl, usa"
"417",-84.3879824,33.7489954,"atlanta, ga, usa"
"418",-80.1917902,25.7616798,"miami, fl, usa"
"419",-98.3959291,34.6035669,"lawton, ok, usa"
"420",-102.4107493,34.2331373,"earth, tx 79031, usa"
"421",-73.9441579,40.6781784,"brooklyn, ny, usa"
"422",-116.419389,34.9592083,"southern california, ca, usa"
"423",-74.0059728,40.7127753,"new york, ny, usa"
"424",-119.6981901,34.4208305,"santa barbara, ca, usa"
"425",-97.3047051,37.7697087,"4711 n marblefalls st, wichita, ks 67219, usa"
"426",-77.0340315,38.9031004,"1015 15th st nw #750, washington, dc 20005, usa"
"427",-95.971261,36.153315,"533 s rockford ave, tulsa, ok 74120, usa"
"428",-80.2491961,35.8138523,"31 s talbert blvd #257, lexington, nc 27292, usa"
"429",-95.712891,37.09024,"united states"
"430",-91.8318334,37.9642529,"missouri, usa"
"431",-71.0588801,42.3600825,"boston, ma, usa"
"432",-77.0368707,38.9071923,"washington, dc, usa"
"433",-98.4936282,29.4241219,"san antonio, tx, usa"
"434",-78.6568942,37.4315734,"virginia, usa"
"435",-122.3320708,47.6062095,"seattle, wa, usa"
"436",-95.4338292,29.7180075,"west university place, tx, usa"
"437",-85.6023643,44.3148443,"michigan, usa"
"438",-119.4179324,36.778261,"california, usa"
"439",-81.279977,28.5385558,"7800 lake underhill rd, orlando, fl 32822, usa"
"440",-75.163389,39.9629406,"1509 spring garden st, philadelphia, pa 19130, usa"
"441",-97.5164276,35.4675602,"oklahoma city, ok, usa"
"442",-121.5580176,39.0207272,"plumas lake, ca 95961, usa"
"443",-117.109614,32.784338,"10509 san diego mission rd suite a, san diego, ca 92108, usa"
"444",-71.0588801,42.3600825,"boston, ma, usa"
"445",-93.097702,41.8780025,"iowa, usa"
"446",-71.3770456,42.3251862,"fairfield rd, wayland, ma 01778, usa"
"447",-73.064036,41.2306979,"milford, ct, usa"
"448",-81.3792365,28.5383355,"orlando, fl, usa"
"449",-87.6300879,41.8968129,"800 n dearborn st, chicago, il 60610, usa"
"450",-118.2436849,34.0522342,"los angeles, ca, usa"
"451",-117.8265049,33.6845673,"irvine, ca, usa"
"452",-87.6297982,41.8781136,"chicago, il, usa"
"453",-73.087749,41.6032207,"connecticut, usa"
"454",-95.2352501,38.9716689,"lawrence, ks, usa"
"455",-95.712891,37.09024,"united states"
"456",-95.048659,45.1223711,"willmar, mn, usa"
"457",-95.712891,37.09024,"united states"
"458",-73.6440058,43.3095164,"glens falls, ny, usa"
"459",-118.3089661,34.1808392,"burbank, ca, usa"
"460",-90.1994042,38.6270025,"st. louis, mo, usa"
"461",-95.473251,29.865931,"7227 antoine dr # 8, houston, tx 77088, usa"
"462",-86.158068,39.768403,"indianapolis, in, usa"
"463",-82.907123,40.4172871,"ohio, usa"
"464",-86.7816016,36.1626638,"nashville, tn, usa"
"465",-71.5147839,42.0028761,"woonsocket, ri 02895, usa"
"466",-117.1610838,32.715738,"san diego, ca, usa"
"467",-74.9813084,44.6697805,"potsdam, ny 13676, usa"
"468",-73.134961,40.789142,"long island, new york, usa"
"469",-82.9987942,39.9611755,"columbus, oh, usa"
"470",-96.84995,32.977735,"3200 belmeade dr #100, carrollton, tx 75006, usa"
"471",-87.9927847,42.9285921,"riverdale ln, greendale, wi 53129, usa"
"472",-94.6431626,38.9124164,"5053 w 119th st, overland park, ks 66209, usa"
"473",-71.3824374,42.4072107,"massachusetts, usa"
"474",-74.0059728,40.7127753,"new york, ny, usa"
"475",-95.712891,37.09024,"united states"
"476",-87.9301134,42.9308255,"1300 w college ave, milwaukee, wi 53221, usa"
"477",-122.4049855,37.755535,"1001 potrero ave, san francisco, ca 94110, usa"
"478",-118.2436849,34.0522342,"los angeles, ca, usa"
"479",-118.2436849,34.0522342,"los angeles, ca, usa"
"480",-81.0228331,29.2108147,"daytona beach, fl, usa"
"481",-119.806348,39.5109175,"1313 s virginia st, reno, nv 89502, usa"
"482",-93.097702,41.8780025,"iowa, usa"
"483",-89.4012302,43.0730517,"madison, wi, usa"
"484",-73.2006639,41.2428563,"trumbull, ct 06611, usa"
"485",-74.0059728,40.7127753,"new york, ny, usa"
"486",-93.2650108,44.977753,"minneapolis, mn, usa"
"487",-73.6981858,40.8256561,"port washington, ny, usa"
"488",-87.6297982,41.8781136,"chicago, il, usa"
"489",-87.6297982,41.8781136,"chicago, il, usa"
"490",-121.4758228,38.5734161,"2327 l st, sacramento, ca 95816, usa"
"491",-74.0059728,40.7127753,"new york, ny, usa"
"492",-83.9811014,34.1140497,"2505 mill center pkwy, buford, ga 30518, usa"
"493",-83.9207392,35.9606384,"knoxville, tn, usa"
"494",-118.3082747,34.2596475,"sunland-tujunga, los angeles, ca 91040, usa"
"495",-73.134961,40.789142,"long island, new york, usa"
"496",-86.8950297,41.7075394,"michigan city, in, usa"
"497",-76.651193,40.285919,"27 w chocolate ave, hershey, pa 17033, usa"
"498",-80.1289321,26.3683064,"boca raton, fl, usa"
"499",-95.9618958,36.0404924,"8330 riverside pkwy, tulsa, ok 74137, usa"
"500",-122.7094767,42.1945758,"no street provided, ashland, or 97520, usa"
"501",-119.4179324,36.778261,"california, usa"
"502",-81.5157535,27.6648274,"florida, usa"
"503",-118.3525744,33.887237,"lawndale, ca, usa"
"504",-95.712891,37.09024,"united states"
"505",-90.0489801,35.1495343,"memphis, tn, usa"
"506",-119.4179324,36.778261,"california, usa"
"507",-78.6950804,35.8143669,"2304 wesvill ct #340, raleigh, nc 27607, usa"
"508",-115.1398296,36.1699412,"las vegas, nv, usa"
"509",-71.0588801,42.3600825,"boston, ma, usa"
"510",-97.7430608,30.267153,"austin, tx, usa"
"511",-115.1745559,36.1023715,"3790 s las vegas blvd, las vegas, nv 89109, usa"
"512",-98.1244531,29.7030024,"new braunfels, tx, usa"
"513",-81.5157535,27.6648274,"florida, usa"
"514",-78.4857342,42.5294553,"w yorkshire rd, chaffee, ny 14030, usa"
"515",-74.0059728,40.7127753,"new york, ny, usa"
"516",-76.805345,39.132015,"9001 whiskey bottom rd, laurel, md 20723, usa"
"517",-76.275798,43.1106071,"7066 interstate island rd, syracuse, ny 13209, usa"
"518",-80.4549026,38.5976262,"west virginia, usa"
"519",-85.7013104,38.2536728,"2345 frankfort ave, louisville, ky 40206, usa"
"520",-95.370026,35.7475692,"125 s main st, muskogee, ok 74401, usa"
"521",-74.0059728,40.7127753,"new york, ny, usa"
"522",-77.0402315,38.851242,"ronald reagan washington national airport (dca), arlington, va 22202, usa"
"523",-84.4699955,34.4850139,"2 ga-5, talking rock, ga 30175, usa"
"524",-76.9240422,38.8485264,"suitland, suitland-silver hill, md 20746, usa"
"525",-86.7816016,36.1626638,"nashville, tn, usa"
"526",-119.4179324,36.778261,"california, usa"
"527",-119.4179324,36.778261,"california, usa"
"528",-77.6109219,43.16103,"rochester, ny, usa"
"529",-74.0059728,40.7127753,"new york, ny, usa"
"530",-78.6568942,37.4315734,"virginia, usa"
"531",-73.134961,40.789142,"long island, new york, usa"
"532",-115.1745559,36.1023715,"3790 s las vegas blvd, las vegas, nv 89109, usa"
"533",-121.5900648,38.6950854,"sacramento international airport (smf), 6900 airport blvd, sacramento, ca 95837, usa"
"534",-95.712891,37.09024,"united states"
"535",-119.4179324,36.778261,"california, usa"
"536",-120.0607176,36.9613356,"madera, ca, usa"
"537",-71.6495176,42.5437035,"shirley, ma, usa"
"538",-95.712891,37.09024,"united states"
"539",-117.1817377,46.7297771,"pullman, wa 99163, usa"
"540",-71.0588801,42.3600825,"boston, ma, usa"
"541",-74.0059728,40.7127753,"new york, ny, usa"
"542",-81.655651,30.3321838,"jacksonville, fl, usa"
"543",-121.8810715,37.3351874,"1 washington sq, san jose, ca 95192, usa"
"544",-75.26046,40.0084456,"narberth, pa, usa"
"545",-122.3916754,40.5865396,"redding, ca, usa"
"546",-76.1476538,36.8954012,"overbeck dr, virginia beach, va 23455, usa"
"547",-74.0059728,40.7127753,"new york, ny, usa"
"548",-95.712891,37.09024,"united states"
"549",-95.1902986,30.0575359,"kingwood, houston, tx, usa"
"550",-73.9441579,40.6781784,"brooklyn, ny, usa"
"551",-84.2021366,33.4140415,"2148 ga-20, mcdonough, ga 30253, usa"
"552",-90.2915132,43.2233214,"gotham, wi 53556, usa"
"553",-80.0533746,26.7153424,"west palm beach, fl, usa"
"554",-111.9426452,33.5311541,"paradise valley, az, usa"
"555",-74.4056612,40.0583238,"new jersey, usa"
"556",-94.477961,37.0503045,"3601 s rangeline rd, joplin, mo 64804, usa"
"557",-73.134961,40.789142,"long island, new york, usa"
"558",-84.2171424,33.8545479,"tucker, ga, usa"
"559",-105.0839909,40.5757422,"400 isotope dr, fort collins, co 80521, usa"
"560",-82.907123,40.4172871,"ohio, usa"
"561",-122.8755949,42.3265152,"medford, or, usa"
"562",-117.6062683,33.6275579,"rancho santa margarita, ca 92688, usa"
"563",-97.7430608,30.267153,"austin, tx, usa"
"564",-86.7816016,36.1626638,"nashville, tn, usa"
"565",-76.6412712,39.0457549,"maryland, usa"
"566",-74.0059728,40.7127753,"new york, ny, usa"
"567",-73.9441579,40.6781784,"brooklyn, ny, usa"
"568",-78.6381787,35.7795897,"raleigh, nc, usa"
"569",-74.0059728,40.7127753,"new york, ny, usa"
"570",-84.2700179,37.8393332,"kentucky, usa"
"571",-122.3099116,37.8387167,"san francisco bay, emeryville, ca 94608, united states"
"572",-86.902298,32.3182314,"alabama, usa"
"573",-82.7535049,39.8842304,"pickerington, oh, usa"
"574",-110.926479,32.2217429,"tucson, az, usa"
"575",-121.9538909,38.2724897,"520 parker rd # b, fairfield, ca 94533, usa"
"576",-82.2710882,28.3355675,"college ave, san antonio, fl 33576, usa"
"577",-117.3961564,33.9533487,"riverside, ca, usa"
"578",-76.6121893,39.2903848,"baltimore, md, usa"
"579",-90.9670832,30.4686085,"florida ave sw, denham springs, la 70726, usa"
"580",-81.359238,41.139767,"168 cherry st, kent, oh 44240, usa"
"581",-98.3959291,34.6035669,"lawton, ok, usa"
"582",-110.3625658,46.8796822,"montana, usa"
"583",-97.1525862,33.207488,"1155 union cir, denton, tx 76203, usa"
"584",-99.4803241,27.5305671,"laredo, tx, usa"
"585",-71.0588801,42.3600825,"boston, ma, usa"
"586",-77.1710914,38.882334,"falls church, va, usa"
"587",-123.0350963,44.9428975,"salem, or, usa"
"588",-117.5757622,47.4873895,"cheney, wa 99004, usa"
"589",-99.9018131,31.9685988,"texas, usa"
"590",-87.2900788,41.472082,"3800 w lincoln hwy, merrillville, in 46410, usa"
"591",-97.7430608,30.267153,"austin, tx, usa"
"592",-84.1768507,39.7693678,"5 oh-4, dayton, oh 45404, usa"
"593",-102.4107493,34.2331373,"earth, tx 79031, usa"
"594",-75.1652215,39.9525839,"philadelphia, pa, usa"
"595",-73.9441579,40.6781784,"brooklyn, ny, usa"
"596",-73.9441579,40.6781784,"brooklyn, ny, usa"
"597",-77.0227778,38.8591667,"ohio dr sw, washington, dc 20024, usa"
"598",-72.5778415,44.5588028,"vermont, usa"
"599",-74.694929,40.774716,"14 wyckoff way, chester, nj 07930, usa"
"600",-122.4194155,37.7749295,"san francisco, ca, usa"
"601",-96.735706,32.6863504,"9220 s central expy, dallas, tx 75241, usa"
"602",-117.0040719,32.7814699,"9001 wakarusa st, la mesa, ca 91942, usa"
"603",-117.0230839,32.7678287,"la mesa, ca, usa"
"604",-96.7898034,46.8771863,"fargo, nd, usa"
"605",-87.6297982,41.8781136,"chicago, il, usa"
"606",-75.1652215,39.9525839,"philadelphia, pa, usa"
"607",-95.0138776,41.4036007,"atlantic, ia 50022, usa"
"608",-74.0059728,40.7127753,"new york, ny, usa"
"609",-76.729178,39.097893,"4409 llewellyn ave, fort meade, md 20755, usa"
"610",-71.3701332,41.8734673,"1 columbus ave, pawtucket, ri 02860, usa"
"611",-81.3289397,28.8713443,"debary, fl 32713, usa"
"612",-116.419389,34.9592083,"southern california, ca, usa"
"613",-74.5463282,40.8336038,"morris county, nj, usa"
"614",-119.2290316,34.274646,"ventura, ca, usa"
"615",-76.1390412,43.0402889,"766 irving ave, syracuse, ny 13210, usa"
"616",-77.0368707,38.9071923,"washington, dc, usa"
"617",-90.0715323,29.9510658,"new orleans, la, usa"
"618",-73.1112433,44.4905054,"essex, vt, usa"
"619",-95.712891,37.09024,"united states"
"620",-121.4943996,38.5815719,"sacramento, ca, usa"
"621",-74.0059728,40.7127753,"new york, ny, usa"
"622",-94.6858998,46.729553,"minnesota, usa"
"623",-96.4130601,42.4648558,"south sioux city, ne, usa"
"624",-74.0059728,40.7127753,"new york, ny, usa"
"625",-122.2852473,37.831316,"emeryville, ca, usa"
"626",-79.9958864,40.4406248,"pittsburgh, pa, usa"
"627",-97.3307658,32.7554883,"fort worth, tx, usa"
"628",-105.7820674,39.5500507,"colorado, usa"
"629",-95.712891,37.09024,"united states"
"630",-117.8719544,33.6205462,"springville, ia, usa"
"631",-106.4850217,31.7618778,"el paso, tx, usa"
"632",-80.2213477,40.5169767,"moon, pa, usa"
"633",-89.6501481,39.7817213,"springfield, il, usa"
"634",-76.4921829,38.9784453,"annapolis, md, usa"
"635",-122.3130228,47.6189905,"115 15th ave e #201, seattle, wa 98112, usa"
"636",-95.3698028,29.7604267,"houston, tx, usa"
"637",-96.7969879,32.7766642,"dallas, tx, usa"
"638",-104.9416688,39.692037,"c, 1355 s colorado blvd, denver, co 80222, usa"
"639",-86.1445299,39.7919657,"1831 n college ave, indianapolis, in 46202, usa"
"640",-95.712891,37.09024,"united states"
"641",-118.3267992,34.0038165,"3031 w vernon ave, los angeles, ca 90008, usa"
"642",-91.1882837,30.2968367,"sunshine, la 70780, usa"
"643",-119.4179324,36.778261,"california, usa"
"644",-90.3301342,38.6446552,"st. louis, mo 63105, usa"
"645",-71.0588801,42.3600825,"boston, ma, usa"
"646",-82.9000751,32.1656221,"georgia, usa"
"647",-81.5190053,41.0814447,"akron, oh, usa"
"648",-124.1636729,40.8020712,"eureka, ca, usa"
"649",-80.1625463,25.9331488,"north miami beach, fl, usa"
"650",-99.9018131,31.9685988,"texas, usa"
"651",-117.4260465,47.6587802,"spokane, wa, usa"
"652",-81.6943605,41.49932,"cleveland, oh, usa"
"653",-115.1219028,36.1611747,"fremont st, las vegas, nv 89101, usa"
"654",-89.3818352,43.0737657,"119 martin luther king jr blvd suite 20, madison, wi 53703, usa"
"655",-79.0558445,35.9131996,"chapel hill, nc, usa"
"656",-73.8648268,40.8447819,"bronx, ny, usa"
"657",-87.6297982,41.8781136,"chicago, il, usa"
"658",-74.0059728,40.7127753,"new york, ny, usa"
"659",-116.3540138,43.6954424,"eagle, id, usa"
"660",-75.5243682,39.158168,"dover, de, usa"
"661",-73.9485424,40.744679,"long island city, queens, ny, usa"
"662",-91.0551001,29.9902013,"paincourtville, la, usa"
"663",-87.6297982,41.8781136,"chicago, il, usa"
"664",-87.6297982,41.8781136,"chicago, il, usa"
"665",-86.4958219,34.3181497,"arab, al 35016, usa"
"666",-96.948328,32.808286,"214 w 6th st, irving, tx 75060, usa"
"667",-116.419389,34.9592083,"southern california, ca, usa"
"668",-82.1013889,39.324358,"athens, oh 45701, usa"
"669",-82.9987942,39.9611755,"columbus, oh, usa"
"670",-73.7948516,40.7282239,"queens, ny, usa"
"671",-106.6259777,35.2011557,"rio grande, albuquerque, nm 87114, usa"
"672",-81.0739825,33.9934867,"west columbia, sc 29169, usa"
"673",-69.3844783,45.1689375,"guilford, me, usa"
"674",-95.905791,36.136566,"1750 s. sheridan rd., suite sm, tulsa, ok 74112, united states"
"675",-111.9221591,40.7321685,"beyles riverside plot, salt lake city, ut 84104, usa"
"676",-94.6858998,46.729553,"minnesota, usa"
"677",-73.9441579,40.6781784,"brooklyn, ny, usa"
"678",-95.712891,37.09024,"united states"
"679",-74.0105948,40.7084692,"120 broadway, new york, ny 10271, usa"
"680",-94.1049895,36.3704099,"1 w cass hough dr, rogers, ar 72756, usa"
"681",-81.6943605,41.49932,"cleveland, oh, usa"
"682",-82.3940104,34.8526176,"greenville, sc, usa"
"683",-77.4288769,38.8403909,"centreville, va, usa"
"684",-93.2650108,44.977753,"minneapolis, mn, usa"
"685",-75.2993417,40.2798274,"hatfield, pa 19440, usa"
"686",-91.755772,29.7711306,"twin brothers rd, franklin, la 70538, usa"
"687",-117.1610838,32.715738,"san diego, ca, usa"
"688",-87.9064736,43.0389025,"milwaukee, wi, usa"
"689",-97.3307658,32.7554883,"fort worth, tx, usa"
"690",-77.0732748,39.5156627,"narnia, 11, new windsor, md 21776, usa"
"691",-74.0059728,40.7127753,"new york, ny, usa"
"692",-91.8318334,37.9642529,"missouri, usa"
"693",-93.751442,32.5197657,"58 la-1, shreveport, la 71107, usa"
"694",-74.0059728,40.7127753,"new york, ny, usa"
"695",-84.4277001,33.6407282,"hartsfield-jackson atlanta international airport (atl), 6000 n terminal pkwy, atlanta, ga 30320, usa"
"696",-116.9960495,32.6398779,"lecture hall, 900 otay lakes rd, chula vista, ca 91910, usa"
"697",-102.2547919,41.7369721,"garden county, ne, usa"
"698",-80.2797808,25.9560262,"20000 nw 47th ave, miami gardens, fl 33055, usa"
"699",-91.1403196,30.4582829,"baton rouge, la, usa"
"700",-91.8318334,35.20105,"arkansas, usa"
"701",-73.604822,43.083998,"117 ny-32, schuylerville, ny 12871, usa"
"702",-76.6121893,39.2903848,"baltimore, md, usa"
"703",-118.2436849,34.0522342,"los angeles, ca, usa"
"704",-81.5157535,27.6648274,"florida, usa"
"705",-112.0740373,33.4483771,"phoenix, az, usa"
"706",-74.4056612,40.0583238,"new jersey, usa"
"707",-77.0368707,38.9071923,"washington, dc, usa"
"708",-73.9023166,40.863007,"33 w fordham rd, bronx, ny 10468, usa"
"709",-72.6412013,42.3250896,"northampton, ma, usa"
"710",-71.0588801,42.3600825,"boston, ma, usa"
"711",-95.712891,37.09024,"united states"
"712",-98.4936282,29.4241219,"san antonio, tx, usa"
"713",-81.1881557,37.7781702,"beckley, wv 25801, usa"
"714",-82.0175864,27.0028303,"1533 rio de janeiro ave, punta gorda, fl 33983, usa"
"715",-96.7969879,32.7766642,"dallas, tx, usa"
"716",-77.0909809,38.8816208,"arlington county, arlington, va, usa"
"717",-83.7430378,42.2808256,"ann arbor, mi, usa"
"718",-94.658108,39.022807,"5835 lamar ave, mission, ks 66202, usa"
"719",-78.8783689,42.8864468,"buffalo, ny, usa"
"720",-81.0348144,34.0007104,"columbia, sc, usa"
"721",-97.8122658,35.2908947,"tuttle, ok 73089, usa"
"722",-122.3320708,47.6062095,"seattle, wa, usa"
"723",-75.5276699,38.9108325,"delaware, usa"
"724",-118.2436849,34.0522342,"los angeles, ca, usa"
"725",-75.4901833,40.6084305,"allentown, pa, usa"
"726",-119.4179324,36.778261,"california, usa"
"727",-74.0059728,40.7127753,"new york, ny, usa"
"728",-77.0368707,38.9071923,"washington, dc, usa"
"729",-95.283276,38.970904,"601 kasold dr d102, lawrence, ks 66049, usa"
"730",-82.9000751,32.1656221,"georgia, usa"
"731",-118.2436849,34.0522342,"los angeles, ca, usa"
"732",-84.178641,33.801162,"850 sheppard cove, stone mountain, ga 30083, usa"
"733",-88.0398912,30.6953657,"mobile, al, usa"
"734",-118.1270146,34.095287,"alhambra, ca, usa"
"735",-79.9958864,40.4406248,"pittsburgh, pa, usa"
"736",-78.4766781,38.0293059,"charlottesville, va, usa"
"737",-119.4179324,36.778261,"california, usa"
"738",-76.93776,38.9896967,"college park, md, usa"
"739",-84.7721702,37.6456329,"danville, ky, usa"
"740",-114.725,32.725833,"andrade, ca 92283, usa"
"741",-123.9702556,44.0147908,"co hwy 5034, mapleton, or 97453, usa"
"742",-78.8636402,35.8991678,"research triangle park, durham, nc, usa"
"743",-121.8374777,39.7284944,"chico, ca, usa"
"744",-76.6412712,39.0457549,"maryland, usa"
"745",-78.8000128,35.5843235,"fuquay varina, nc, usa"
"746",-89.4124875,43.076592,"madison, wi 53706, usa"
"747",-95.3698028,29.7604267,"houston, tx, usa"
"748",-118.4491211,34.0696702,"bradley hall, 417 charles e young drive west #106, los angeles, ca 90095, usa"
"749",-88.1535352,41.7508391,"naperville, il, usa"
"750",-99.9018131,31.9685988,"texas, usa"
"751",-93.0899578,44.9537029,"st paul, mn, usa"
"752",-79.0558445,35.9131996,"chapel hill, nc, usa"
"753",-77.0368707,38.9071923,"washington, dc, usa"
"754",-122.434574,47.23757,"2611 pacific ave, tacoma, wa 98402, usa"
"755",-81.5157535,27.6648274,"florida, usa"
"756",-88.667284,44.201139,"5310 county rd ii, larsen, wi 54947, usa"
"757",-81.9749472,27.3876433,"peace river, florida, usa"
"758",-110.9926154,33.3494997,"top-of-the-world, az 85539, usa"
"759",-115.1525353,36.1686597,"360 promenade place, las vegas, nv 89106, usa"
"760",-118.2436849,34.0522342,"los angeles, ca, usa"
"761",-77.3570028,38.9586307,"reston, va, usa"
"762",-90.1848402,35.1467492,"38 ar-77, west memphis, ar 72301, usa"
"763",-84.170196,33.8081608,"stone mountain, ga, usa"
"764",-89.3985283,40.6331249,"illinois, usa"
"765",-95.0078451,40.5974113,"braddyville, ia 51631, usa"
"766",-92.7049303,45.3205199,"osceola, wi 54020, usa"
"767",-71.0588801,42.3600825,"boston, ma, usa"
"768",-122.2711137,37.8043637,"oakland, ca, usa"
"769",-118.2436849,34.0522342,"los angeles, ca, usa"
"770",-93.3263643,45.1819692,"2340 northdale blvd nw, coon rapids, mn 55433, usa"
"771",-74.2179326,43.2994285,"new york, usa"
"772",-75.3854728,38.6901134,"georgetown, de 19947, usa"
"773",-95.2270358,30.1401939,"justice dr, new caney, tx 77357, usa"
"774",-95.712891,37.09024,"united states"
"775",-72.307869,43.7153482,"norwich, vt, usa"
"776",-119.4179324,36.778261,"california, usa"
"777",-91.9206505,44.9028713,"1801 wakanda st ne, menomonie, wi 54751, usa"
"778",-74.0059728,40.7127753,"new york, ny, usa"
"779",-97.6385368,35.5587725,"oklahoma city, ok 73132, usa"
"780",-86.5804473,35.5174913,"tennessee, usa"
"781",-118.1937395,33.7700504,"long beach, ca, usa"
"782",-107.4338866,32.4507852,"co rd a021, deming, nm 88030, usa"
"783",-95.712891,37.09024,"united states"
"784",-77.0272552,38.8994725,"1100 h st nw, washington, dc 20005, usa"
"785",-95.712891,37.09024,"united states"
"786",-122.1660756,37.424106,"stanford, ca, usa"
"787",-95.712891,37.09024,"united states"
"788",-105.2705456,40.0149856,"boulder, co, usa"
"789",-95.018026,29.38888,"600 gulf freeway north, suite 103, texas city, tx 77591, united states"
"790",-98.1738243,26.3070184,"1201 w university dr, edinburg, tx 78539, usa"
"791",-119.4179324,36.778261,"california, usa"
"792",-157.8583333,21.3069444,"honolulu, hi, usa"
"793",-94.1789725,36.3362474,"265 n 46th st, rogers, ar 72756, usa"
"794",-81.5157535,27.6648274,"florida, usa"
"795",-96.6786131,34.2362054,"tishomingo, ok 73460, usa"
"796",-75.5276699,38.9108325,"delaware, usa"
"797",-86.9352842,34.4434282,"hartselle, al 35640, usa"
"798",-121.4943996,38.5815719,"sacramento, ca, usa"
"799",-91.9623327,30.9842977,"louisiana, usa"
"800",-119.4179324,36.778261,"california, usa"
"801",-96.7969879,32.7766642,"dallas, tx, usa"
"802",-97.1330683,33.2148412,"denton, tx, usa"
"803",-91.5301683,41.6611277,"iowa city, ia, usa"
"804",-85.6023643,44.3148443,"michigan, usa"
"805",-122.6764815,45.5230622,"portland, or, usa"
"806",-85.9404185,37.8427946,"332 n dixie blvd, radcliff, ky 40160, usa"
"807",-120.7401385,47.7510741,"washington, usa"
"808",-76.666147,38.709463,"9475 old jones ln, dunkirk, md 20754, usa"
"809",-117.1610838,32.715738,"san diego, ca, usa"
"810",-71.8022934,42.2625932,"worcester, ma, usa"
"811",-104.5230242,33.3942655,"roswell, nm, usa"
"812",-74.0059728,40.7127753,"new york, ny, usa"
"813",-86.3053597,44.2293196,"90 park ave, manistee, mi 49660, usa"
"814",-111.7185451,40.3169235,"1090 n 960 w, orem, ut 84057, usa"
"815",-95.712891,37.09024,"united states"
"816",-81.5148368,36.8348383,"marion, va 24354, usa"
"817",-97.3167936,37.6840231,"212 s hydraulic ave #200, wichita, ks 67211, usa"
"818",-116.9446123,32.7913116,"s 1st st, el cajon, ca, usa"
"819",-97.9908366,26.1595194,"weslaco, tx, usa"
"820",-98.9911611,31.7093197,"brownwood, tx, usa"
"821",-82.8121191,39.9547861,"reynoldsburg, oh, usa"
"822",-118.3023579,34.0609876,"koreatown, los angeles, ca, usa"
"823",-106.2800242,43.4113604,"midwest, wy 82643, usa"
"824",-95.712891,37.09024,"united states"
"825",-95.712891,37.09024,"united states"
"826",-95.712891,37.09024,"united states"
"827",-97.3307658,32.7554883,"fort worth, tx, usa"
"828",-84.8413056,33.9244531,"dallas, ga, usa"
"829",-72.8966883,41.3878921,"81-93 lincoln st, hamden, ct 06518, usa"
"830",-88.4153847,44.2619309,"appleton, wi, usa"
"831",-87.896646,42.9475534,"general mitchell international airport (mke), 5300 s howell ave, milwaukee, wi 53207, usa"
"832",-74.0059728,40.7127753,"new york, ny, usa"
"833",-87.9173922,41.9131762,"505 n northwest ave, melrose park, il 60164, usa"
"834",-97.1080656,32.735687,"arlington, tx, usa"
"835",-95.712891,37.09024,"united states"
"836",-77.0368707,38.9071923,"washington, dc, usa"
"837",-118.255075,34.1425078,"glendale, ca, usa"
"838",-121.8995741,37.4323341,"milpitas, ca 95035, usa"
"839",-86.8160864,36.1420635,"west end ave, nashville, tn, usa"
"840",-81.7831674,32.4487876,"statesboro, ga, usa"
"841",-94.5785667,39.0997265,"kansas city, mo, usa"
"842",-95.408138,30.0938655,"tx-99, texas, usa"
"843",-88.8721913,42.5507196,"105 scot dr, clinton, wi 53525, usa"
"844",-102.4107493,34.2331373,"earth, tx 79031, usa"
"845",-111.0937311,34.0489281,"arizona, usa"
"846",-89.0187222,42.6827885,"janesville, wi, usa"
"847",-94.3985475,35.3859242,"fort smith, ar, usa"
"848",-87.7602365,41.8077115,"5504 w 47th st, chicago, il 60638, usa"
"849",-95.3698028,29.7604267,"houston, tx, usa"
"850",-123.0998878,44.0559814,"499 w 4th ave, eugene, or 97401, usa"
"851",-73.9441579,40.6781784,"brooklyn, ny, usa"
"852",-122.421116,37.75931,"853 valencia st, san francisco, ca 94110, usa"
"853",-98.4936282,29.4241219,"san antonio, tx, usa"
"854",-97.164949,35.2886285,"jack rabbit run, newalla, ok 74857, usa"
"855",-75.5993692,38.3606736,"salisbury, md, usa"
"856",-84.4013462,42.245869,"jackson, mi, usa"
"857",-73.644284,42.6967455,"wynantskill, ny, usa"
"858",-75.1652215,39.9525839,"philadelphia, pa, usa"
"859",-83.0457538,42.331427,"detroit, mi, usa"
"860",-94.4751346,37.0750055,"1329 s rangeline rd, joplin, mo 64801, usa"
"861",-73.7751326,41.0748188,"valhalla, ny, usa"
"862",-73.298408,41.7040641,"us-202, united states"
"863",-72.6412013,42.3250896,"northampton, ma, usa"
"864",-121.3716178,38.4087993,"elk grove, ca, usa"
"865",-74.0059728,40.7127753,"new york, ny, usa"
"866",-73.9876523,40.6939226,"350 jay st, brooklyn, ny 11201, usa"
"867",-81.1637245,33.836081,"south carolina, usa"
"868",-89.4012302,43.0730517,"madison, wi, usa"
"869",-84.5111008,39.1029873,"114 e 6th st, cincinnati, oh 45202, usa"
"870",-118.3286614,34.0928092,"hollywood, los angeles, ca, usa"
"871",-90.1994042,38.6270025,"st. louis, mo, usa"
"872",-77.0368707,38.9071923,"washington, dc, usa"
"873",-71.1786237,42.1236499,"sharon, ma, usa"
"874",-105.5153527,38.3706368,"45 log ln dead, cotopaxi, co 81223, usa"
"875",-93.2009998,44.9374831,"twin cities, mn, usa"
"876",-122.0020776,37.5262979,"2086 newpark mall rd, newark, ca 94560, usa"
"877",-95.971261,36.153315,"533 s rockford ave, tulsa, ok 74120, usa"
"878",-80.148379,25.9812024,"hallandale beach, fl 33009, usa"
"879",-95.712891,37.09024,"united states"
"880",-111.73854,40.3641184,"pleasant grove, ut, usa"
"881",-83.1761631,41.1154697,"71 s washington st, tiffin, oh 44883, usa"
"882",-90.1994042,38.6270025,"st. louis, mo, usa"
"883",-75.1652215,39.9525839,"philadelphia, pa, usa"
"884",-79.9133816,40.465722,"larimer ave, pittsburgh, pa 15206, usa"
"885",-71.0588801,42.3600825,"boston, ma, usa"
"886",-95.712891,37.09024,"united states"
"887",-96.9944489,32.482361,"midlothian, tx, usa"
"888",-105.0749801,40.3977612,"loveland, co, usa"
"889",-81.5157535,27.6648274,"florida, usa"
"890",-95.7657864,39.0335157,"1801 sw wanamaker rd, topeka, ks 66604, usa"
"891",-83.2948922,36.2139814,"morristown, tn, usa"
"892",-79.0780831,40.008411,"somerset, pa 15501, usa"
"893",-74.3118212,41.3911653,"orange county, ny, usa"
"894",-95.3698028,29.7604267,"houston, tx, usa"
"895",-95.712891,37.09024,"united states"
"896",-122.3320708,47.6062095,"seattle, wa, usa"
"897",-83.5149023,36.2809202,"rutledge, tn 37861, usa"
"898",-76.1783739,40.0466571,"lancaster county, pa, usa"
"899",-104.9795145,39.7367324,"608 e 13th ave suite 1, denver, co 80203, usa"
"900",-102.623199,32.772201,"513 cr 103, seminole, tx 79360, united states"
"901",-123.7510225,47.750087,"olympic peninsula, washington 98331, usa"
"902",-79.0377388,43.0962143,"niagara falls, ny, usa"
"903",-119.4179324,36.778261,"california, usa"
"904",-84.4277001,33.6407282,"hartsfield-jackson atlanta international airport (atl), 6000 n terminal pkwy, atlanta, ga 30320, usa"
"905",-81.5157535,27.6648274,"florida, usa"
"906",-86.6540919,34.7123752,"tranquility base, huntsville, al 35805, usa"
"907",-76.9957039,39.4235805,"20 liberty rd d, sykesville, md 21784, usa"
"908",-75.1652215,39.9525839,"philadelphia, pa, usa"
"909",-79.9958864,40.4406248,"pittsburgh, pa, usa"
"910",-118.2436849,34.0522342,"los angeles, ca, usa"
"911",-86.2516406,33.1731716,"sylacauga, al, usa"
"912",-118.2436849,34.0522342,"los angeles, ca, usa"
"913",-86.902298,32.3182314,"alabama, usa"
"914",-74.937139,39.0135465,"republic ln, villas, nj 08251, usa"
"915",-77.026088,38.9906657,"silver spring, md, usa"
"916",-84.4277001,33.6407282,"hartsfield-jackson atlanta international airport (atl), 6000 n terminal pkwy, atlanta, ga 30320, usa"
"917",-121.4014603,37.748242,"1705 n chrisman rd, tracy, ca 95304, usa"
"918",-121.8863286,37.3382082,"san jose, ca, usa"
"919",-83.7740198,35.8725599,"seymour, tn, usa"
"920",-95.712891,37.09024,"united states"
"921",-118.2436849,34.0522342,"los angeles, ca, usa"
"922",-84.4838654,42.7369792,"east lansing, mi, usa"
"923",-71.065428,42.504923,"1 new salem st, wakefield, ma 01880, usa"
"924",-121.7114362,48.4241961,"skagit county, wa, usa"
"925",-121.9654696,36.9711454,"1435 41st ave, capitola, ca 95010, usa"
"926",-80.2706044,26.271192,"coral springs, fl, usa"
"927",-75.3698895,40.0415996,"wayne, pa, usa"
"928",-117.5931084,34.1063989,"rancho cucamonga, ca, usa"
"929",-86.5804473,35.5174913,"tennessee, usa"
"930",-118.2436849,34.0522342,"los angeles, ca, usa"
"931",-87.735895,42.1080834,"winnetka, il, usa"
"932",-119.4179324,36.778261,"california, usa"
"933",-93.2650108,44.977753,"minneapolis, mn, usa"
"934",-95.712891,37.09024,"united states"
"935",-73.7948516,40.7282239,"queens, ny, usa"
"936",-86.158068,39.768403,"indianapolis, in, usa"
"937",-80.6081089,28.0836269,"melbourne, fl, usa"
"938",-122.3320708,47.6062095,"seattle, wa, usa"
"939",-75.6012002,41.3405944,"8th, pennsylvania 18444, usa"
"940",-86.158068,39.768403,"indianapolis, in, usa"
"941",-122.6764815,45.5230622,"portland, or, usa"
"942",-112.0069083,42.6192183,"430 main st, lava hot springs, id 83246, usa"
"943",-122.2710788,37.5585465,"foster city, ca, usa"
"944",-71.4128343,41.8239891,"providence, ri, usa"
"945",-122.0861616,37.6963063,"20400 lake chabot rd #304, castro valley, ca 94546, usa"
"946",-117.1661449,33.1433723,"san marcos, ca, usa"
"947",-100.9598709,35.5361559,"pampa, tx 79065, usa"
"948",-122.2913078,37.8271784,"san francisco bay area, ca, usa"
"949",-75.1068388,40.1742757,"hatboro, pa 19040, usa"
"950",-96.0617155,33.0929274,"1763 co rd 3302, greenville, tx 75402, usa"
"951",-105.2561166,39.98998,"44 co-93, boulder, co 80305, usa"
"952",-87.7828523,42.7261309,"racine, wi, usa"
"953",-95.712891,37.09024,"united states"
"954",-119.0187125,35.3732921,"bakersfield, ca, usa"
"955",-75.2424229,39.8743959,"philadelphia international airport (phl), 8000 essington ave, philadelphia, pa 19153, usa"
"956",-84.4277001,33.6407282,"hartsfield-jackson atlanta international airport (atl), 6000 n terminal pkwy, atlanta, ga 30320, usa"
"957",-88.7878678,43.7844397,"wisconsin, usa"
"958",-95.712891,37.09024,"united states"
"959",-99.9018131,31.9685988,"texas, usa"
"960",-118.2436849,34.0522342,"los angeles, ca, usa"
"961",-111.927992,33.4907039,"3701 n marshall way, scottsdale, az 85251, usa"
"962",-77.0368707,38.9071923,"washington, dc, usa"
"963",-94.785493,30.060823,"514 davidge st, liberty, tx 77575, usa"
"964",-97.1525862,33.207488,"1155 union cir, denton, tx 76203, usa"
"965",-75.1652215,39.9525839,"philadelphia, pa, usa"
"966",-87.6297982,41.8781136,"chicago, il, usa"
"967",-77.1945247,41.2033216,"pennsylvania, usa"
"968",-95.2742704,29.6991733,"chicago st, houston, tx 77017, usa"
"969",-122.5697032,38.1074198,"novato, ca, usa"
"970",-81.6943605,41.49932,"cleveland, oh, usa"
"971",-91.8318334,37.9642529,"missouri, usa"
"972",-87.6297982,41.8781136,"chicago, il, usa"
"973",-96.9488945,32.8140177,"irving, tx, usa"
"974",-89.9206512,35.1213511,"east memphis, memphis, tn, usa"
"975",-74.0059728,40.7127753,"new york, ny, usa"
"976",-88.914102,40.482914,"3201 cira dr #201, bloomington, il 61704, usa"
"977",-93.2009998,44.9374831,"twin cities, mn, usa"
"978",-95.857444,36.118537,"10664 e 31st st, tulsa, ok 74146, usa"
"979",-84.3879824,33.7489954,"atlanta, ga, usa"
"980",-93.1566107,45.0060767,"roseville, mn 55113, usa"
"981",-74.0059728,40.7127753,"new york, ny, usa"
"982",-116.419389,34.9592083,"southern california, ca, usa"
"983",-102.6616977,40.1474837,"county rd 40, yuma, co 80759, usa"
"984",-85.6023643,44.3148443,"michigan, usa"
"985",-72.827915,41.8540094,"simsbury, ct, usa"
"986",-81.5157535,27.6648274,"florida, usa"
"987",-117.9988026,33.6594835,"huntington beach, ca, usa"
"988",-95.2860474,29.5635666,"pearland, tx, usa"
"989",-95.712891,37.09024,"united states"
"990",-82.9000751,32.1656221,"georgia, usa"
"991",-83.4252673,36.0416083,"1006 epco dr, dandridge, tn 37725, usa"
"992",-73.9983821,40.6394368,"4802 10th ave, brooklyn, ny 11219, usa"
"993",-99.9018131,31.9685988,"texas, usa"
"994",-95.712891,37.09024,"united states"
"995",-119.4179324,36.778261,"california, usa"
"996",-104.990251,39.7392358,"denver, co, usa"
"997",-111.5764087,40.2532608,"forest rd 027, utah, usa"
"998",-76.6412712,39.0457549,"maryland, usa"
"999",-87.6297982,41.8781136,"chicago, il, usa"
"1000",-121.4943996,38.5815719,"sacramento, ca, usa"
"1001",-78.548621,35.3821067,"benson, nc 27504, usa"
"1002",-90.4564358,39.6297869,"6 il-106, winchester, il 62694, usa"
"1003",-84.1052256,40.742551,"lima, oh, usa"
"1004",-90.5389662,41.8239952,"dewitt, ia 52742, usa"
"1005",-95.712891,37.09024,"united states"
"1006",-71.0588801,42.3600825,"boston, ma, usa"
"1007",-74.0059728,40.7127753,"new york, ny, usa"
"1008",-95.712891,37.09024,"united states"
"1009",-87.6876969,42.0450722,"evanston, il, usa"
"1010",-79.9414266,37.2709704,"roanoke, va, usa"
"1011",-99.9018131,31.9685988,"texas, usa"
"1012",-82.4571776,27.950575,"tampa, fl, usa"
"1013",-81.5190053,41.0814447,"akron, oh, usa"
"1014",-115.1398296,36.1699412,"las vegas, nv, usa"
"1015",-118.1937395,33.7700504,"long beach, ca, usa"
"1016",-86.80249,33.5206608,"birmingham, al, usa"
"1017",-86.158068,39.768403,"indianapolis, in, usa"
"1018",-122.4194155,37.7749295,"san francisco, ca, usa"
"1019",-112.1287861,33.5101648,"3300 w camelback rd, phoenix, az 85017, usa"
"1020",-74.4056612,40.0583238,"new jersey, usa"
"1021",-95.712891,37.09024,"united states"
"1022",-77.0947092,38.984652,"bethesda, md, usa"
"1023",-79.5443842,40.3011618,"14 w 2nd st, greensburg, pa 15601, usa"
"1024",-158.0209227,21.5010495,"wahiawa, hi 96786, usa"
"1025",-115.1335806,36.1140974,"1495 e flamingo rd, las vegas, nv 89119, usa"
"1026",-81.9178997,28.0291036,"1000 longfellow blvd, lakeland, fl 33801, usa"
"1027",-95.7099399,37.2248982,"200 arco pl, independence, ks 67301, usa"
"1028",-82.05077,29.063309,"6006 se front rd, belleview, fl 34420, usa"
"1029",-87.8289548,42.1275267,"northbrook, il 60062, usa"
"1030",-95.712891,37.09024,"united states"
"1031",-98.4842465,39.011902,"kansas, usa"
"1032",-122.3032365,40.5092434,"6640 lockheed dr, redding, ca 96002, usa"
"1033",-71.1166601,42.3770029,"cambridge, ma 02138, usa"
"1034",-81.5157535,27.6648274,"florida, usa"
"1035",-90.2590112,29.9922012,"louis armstrong new orleans international airport (msy), 900 airline dr, kenner, la 70062, usa"
"1036",-79.0192997,35.7595731,"north carolina, usa"
"1037",-95.3698028,29.7604267,"houston, tx, usa"
"1038",-86.158068,39.768403,"indianapolis, in, usa"
"1039",-79.9667766,40.4259915,"2715 sarah st, pittsburgh, pa 15203, usa"
"1040",-77.0368707,38.9071923,"washington, dc, usa"
"1041",-99.9018131,31.9685988,"texas, usa"
"1042",-79.9639145,40.4394832,"3333 fifth ave, pittsburgh, pa 15213, usa"
"1043",-95.712891,37.09024,"united states"
"1044",-74.0059728,40.7127753,"new york, ny, usa"
"1045",-99.9018131,43.9695148,"south dakota, usa"
"1046",-71.0588801,42.3600825,"boston, ma, usa"
"1047",-78.458708,38.253749,"165 earth way dr, stanardsville, va 22973, usa"
"1048",-75.1652215,39.9525839,"philadelphia, pa, usa"
"1049",-97.7430608,30.267153,"austin, tx, usa"
"1050",-118.2200712,33.8958492,"compton, ca, usa"
"1051",-74.4056612,40.0583238,"new jersey, usa"
"1052",-96.7969879,32.7766642,"dallas, tx, usa"
"1053",-83.9128503,34.1807614,"i-985, georgia, usa"
"1054",-149.0729714,62.4113634,"west coast, usa"
"1055",-118.2436849,34.0522342,"los angeles, ca, usa"
"1056",-121.7369944,37.3814513,"san jose, ca 95127, usa"
"1057",-86.1274888,40.0428151,"westfield, in, usa"
"1058",-88.7878678,43.7844397,"wisconsin, usa"
"1059",-108.5506486,39.0638705,"grand junction, co, usa"
"1060",-82.907123,40.4172871,"ohio, usa"
"1061",-107.4338866,32.4507852,"co rd a021, deming, nm 88030, usa"
"1062",-87.6297982,41.8781136,"chicago, il, usa"
"1063",-95.712891,37.09024,"united states"
"1064",-73.9597198,40.7687419,"221 e 71st st, new york, ny 10021, usa"
"1065",-81.5157535,27.6648274,"florida, usa"
"1066",-95.3698028,29.7604267,"houston, tx, usa"
"1067",-73.7272129,41.2046528,"153 main st, mt kisco, ny 10549, usa"
"1068",-77.0340315,38.9031004,"1015 15th st nw #750, washington, dc 20005, usa"
"1069",-97.7430608,30.267153,"austin, tx, usa"
"1070",-122.4874304,48.7175061,"donovan ave, bellingham, wa 98225, usa"
"1071",-116.419389,34.9592083,"southern california, ca, usa"
"1072",-97.4394777,35.2225668,"norman, ok, usa"
"1073",-74.0059728,40.7127753,"new york, ny, usa"
"1074",-94.658108,39.022807,"5835 lamar ave, mission, ks 66202, usa"
"1075",-73.7562317,42.6525793,"albany, ny, usa"
"1076",-111.5764087,40.2532608,"forest rd 027, utah, usa"
"1077",-81.0348144,34.0007104,"columbia, sc, usa"
"1078",-74.0059728,40.7127753,"new york, ny, usa"
"1079",-122.286865,38.2975381,"napa, ca, usa"
"1080",-92.3425775,42.492786,"waterloo, ia, usa"
"1081",-71.0588801,42.3600825,"boston, ma, usa"
"1082",-117.6508876,34.0633443,"ontario, ca, usa"
"1083",-84.8413056,33.9244531,"dallas, ga, usa"
"1084",-94.6858998,46.729553,"minnesota, usa"
"1085",-94.658108,39.022807,"5835 lamar ave, mission, ks 66202, usa"
"1086",-83.1285242,40.5886699,"marion, oh 43302, usa"
"1087",-111.9260519,33.4941704,"scottsdale, az, usa"
"1088",-81.5157535,27.6648274,"florida, usa"
"1089",-75.1932175,42.8853488,"west winfield, ny 13491, usa"
"1090",-91.1403196,30.4582829,"baton rouge, la, usa"
"1091",-83.9844416,34.5278618,"82 college cir, dahlonega, ga 30597, usa"
"1092",-122.1172664,37.4055023,"440 cesano ct #306, palo alto, ca 94306, usa"
"1093",-122.435965,37.7218132,"london st, san francisco, ca 94112, usa"
"1094",-77.6598376,43.2022038,"2515 mt read blvd, rochester, ny 14615, usa"
"1095",-149.7471875,61.0977072,"our own ln, anchorage, ak 99516, usa"
"1096",-106.1007279,34.7394776,"co rd a039, estancia, nm 87016, usa"
"1097",-70.1545818,45.3596723,"hunter, west forks, me 04985, usa"
"1098",-96.7969879,32.7766642,"dallas, tx, usa"
"1099",-88.3200715,41.7605849,"aurora, il, usa"
"1100",-74.0059728,40.7127753,"new york, ny, usa"
"1101",-122.2605222,37.5071591,"san carlos, ca, usa"
"1102",-74.4056612,40.0583238,"new jersey, usa"
"1103",-123.8264512,46.5180824,"pacific county, wa, usa"
"1104",-75.1926937,40.1416782,"fort washington, pa, usa"
"1105",-77.0909809,38.8816208,"arlington county, arlington, va, usa"
"1106",-86.1349019,40.2671941,"indiana, usa"
"1107",-94.7693772,38.9336384,"15850 w 108th st, lenexa, ks 66219, usa"
"1108",-95.712891,37.09024,"united states"
"1109",-122.4014193,37.4337342,"san mateo county, ca, usa"
"1110",-79.0192997,35.7595731,"north carolina, usa"
"1111",-81.0998342,32.0835407,"savannah, ga, usa"
"1112",-93.2619202,44.9725062,"701 park ave, minneapolis, mn 55415, usa"
"1113",-76.3036051,36.860402,"825 fairfax ave, norfolk, va 23507, usa"
"1114",-81.6943605,41.49932,"cleveland, oh, usa"
"1115",-90.0715323,29.9510658,"new orleans, la, usa"
"1116",-122.2913078,37.8271784,"san francisco bay area, ca, usa"
"1117",-93.2650108,44.977753,"minneapolis, mn, usa"
"1118",-123.2753839,44.5801566,"nw kings blvd, corvallis, or 97330, usa"
"1119",-97.396381,27.8005828,"corpus christi, tx, usa"
"1120",-121.6696689,36.7757907,"prunedale, ca, usa"
"1121",-76.6121893,39.2903848,"baltimore, md, usa"
"1122",-74.0059728,40.7127753,"new york, ny, usa"
"1123",-117.1483648,33.4936391,"temecula, ca, usa"
"1124",-71.0588801,42.3600825,"boston, ma, usa"
"1125",-81.1637245,33.836081,"south carolina, usa"
"1126",-96.7969879,32.7766642,"dallas, tx, usa"
"1127",-74.0018051,40.4031645,"monmouth hills, middletown, nj 07716, usa"
"1128",-117.7499909,34.055103,"pomona, ca, usa"
"1129",-77.017983,38.9812717,"baltimore ave, takoma park, md 20912, usa"
"1130",-84.3879824,33.7489954,"atlanta, ga, usa"
"1131",-82.6501332,34.5034394,"anderson, sc, usa"
"1132",-89.4012302,43.0730517,"madison, wi, usa"
"1133",-77.4360481,37.5407246,"richmond, va, usa"
"1134",-80.8431267,35.2270869,"charlotte, nc, usa"
"1135",-95.7257968,32.3593117,"mars, tx 75778, usa"
"1136",-97.1080656,32.735687,"arlington, tx, usa"
"1137",-149.4936733,64.2008413,"alaska, usa"
"1138",-115.1398296,36.1699412,"las vegas, nv, usa"
"1139",-80.4549026,38.5976262,"west virginia, usa"
"1140",-74.2776468,40.6081591,"rahway, nj 07065, usa"
"1141",-81.378447,40.7989473,"canton, oh, usa"
"1142",-122.9006951,47.0378741,"olympia, wa, usa"
"1143",-117.1610838,32.715738,"san diego, ca, usa"
"1144",-77.0483959,38.9028939,"2175 k st nw, washington, dc 20037, usa"
"1145",-97.3516558,32.7732044,"tarrant county, tx, usa"
"1146",-89.4012302,43.0730517,"madison, wi, usa"
"1147",-83.985,42.43472,"hell, mi 48169, usa"
"1148",-84.3879824,33.7489954,"atlanta, ga, usa"
"1149",-97.6836384,32.9659566,"springtown, tx 76082, usa"
"1150",-118.344822,34.064049,"618 s detroit st, los angeles, ca 90036, usa"
"1151",-87.7008193,30.2460361,"gulf shores, al, usa"
"1152",-77.0909809,38.8816208,"arlington county, arlington, va, usa"
"1153",-80.6495194,41.0997803,"youngstown, oh, usa"
"1154",-85.6023643,44.3148443,"michigan, usa"
"1155",-81.1637245,33.836081,"south carolina, usa"
"1156",-96.7969879,32.7766642,"dallas, tx, usa"
"1157",-82.5436722,27.763383,"tampa bay, florida, usa"
"1158",-80.1917902,25.7616798,"miami, fl, usa"
"1159",-83.9207392,35.9606384,"knoxville, tn, usa"
"1160",-84.2963223,37.568694,"berea, ky, usa"
"1161",-77.4360481,37.5407246,"richmond, va, usa"
"1162",-94.6169012,38.966673,"leawood, ks, usa"
"1163",-121.4943996,38.5815719,"sacramento, ca, usa"
"1164",-81.655651,30.3321838,"jacksonville, fl, usa"
"1165",-97.0403352,32.8998091,"dfw international airport (dfw), 2400 aviation dr, dfw airport, tx 75261, usa"
"1166",-77.0368707,38.9071923,"washington, dc, usa"
"1167",-74.0059728,40.7127753,"new york, ny, usa"
"1168",-85.6023643,44.3148443,"michigan, usa"
"1169",-119.4179324,36.778261,"california, usa"
"1170",-81.5157535,27.6648274,"florida, usa"
"1171",-122.4194155,37.7749295,"san francisco, ca, usa"
"1172",-89.2108873,31.6977723,"26 ms-28, laurel, ms 39443, usa"
"1173",-118.4003563,34.0736204,"beverly hills, ca, usa"
"1174",-95.712891,37.09024,"united states"
"1175",-77.0909809,38.8816208,"arlington county, arlington, va, usa"
"1176",-77.0861753,38.707982,"3200 mount vernon hwy, mt vernon, va 22121, usa"
"1177",-77.2310925,38.9187222,"tysons, va, usa"
"1178",-77.0524297,38.8094769,"401 n payne st, alexandria, va 22314, usa"
"1179",-77.0368707,38.9071923,"washington, dc, usa"
"1180",-111.8412502,33.3061605,"chandler, az, usa"
"1181",-86.8752869,40.4167022,"lafayette, in, usa"
"1182",-96.7969879,32.7766642,"dallas, tx, usa"
"1183",-79.778127,36.1432586,"4215 yanceyville rd x, browns summit, nc 27214, usa"
"1184",-82.9000751,32.1656221,"georgia, usa"
"1185",-107.4338866,32.4507852,"co rd a021, deming, nm 88030, usa"
"1186",-75.0359613,39.7268116,"3501 nj-42 suite 290, turnersville, nj 08012, usa"
"1187",-74.8965763,39.7128024,"41 nj-73, hammonton, nj 08037, usa"
"1188",-83.6129939,42.2411499,"ypsilanti, mi, usa"
"1189",-94.3096871,41.8460962,"jamaica, ia 50128, usa"
"1190",-87.964925,41.5992209,"il-7, illinois, usa"
"1191",-94.658108,39.022807,"5835 lamar ave, mission, ks 66202, usa"
"1192",-80.0905465,26.5317866,"boynton beach, fl, usa"
"1193",-73.9441579,40.6781784,"brooklyn, ny, usa"
"1194",-81.3601498,28.5379491,"fl-408, orlando, fl, usa"
"1195",-87.6297982,41.8781136,"chicago, il, usa"
"1196",-81.7229086,41.4047742,"parma, oh, usa"
"1197",-91.8318334,35.20105,"arkansas, usa"
"1198",-88.0070315,43.0166806,"west allis, wi, usa"
"1199",-85.6023643,44.3148443,"michigan, usa"
"1200",-79.6735841,41.6262707,"unknown, 101 w spring st, titusville, pa 16354, usa"
"1201",-95.3698028,29.7604267,"houston, tx, usa"
"1202",-118.2436849,34.0522342,"los angeles, ca, usa"
"1203",-78.6381787,35.7795897,"raleigh, nc, usa"
"1204",-96.1027371,29.3116366,"wharton, tx 77488, usa"
"1205",-84.1916069,39.7589478,"dayton, oh, usa"
"1206",-86.7816016,36.1626638,"nashville, tn, usa"
"1207",-118.2436849,34.0522342,"los angeles, ca, usa"
"1208",-77.2716505,38.7934466,"burke, va, usa"
"1209",-77.4310992,38.8942786,"chantilly, va, usa"
"1210",-94.658108,39.022807,"5835 lamar ave, mission, ks 66202, usa"
"1211",-95.3698028,29.7604267,"houston, tx, usa"
"1212",-80.3997748,26.1003654,"weston, fl, usa"
"1213",-97.7430608,30.267153,"austin, tx, usa"
"1214",-119.8138027,39.5296329,"reno, nv, usa"
"1215",-82.907123,40.4172871,"ohio, usa"
"1216",-84.2029922,39.4353373,"lebanon, oh 45036, usa"
"1217",-118.2436849,34.0522342,"los angeles, ca, usa"
"1218",-122.2913078,37.8271784,"san francisco bay area, ca, usa"
"1219",-89.9366498,35.919568,"alabama st & mississippi ave, blytheville, ar 72315, usa"
"1220",-96.7969879,32.7766642,"dallas, tx, usa"
"1221",-91.8318334,35.20105,"arkansas, usa"
"1222",-97.0403352,32.8998091,"dfw international airport (dfw), 2400 aviation dr, dfw airport, tx 75261, usa"
"1223",-80.1917902,25.7616798,"miami, fl, usa"
"1224",-95.712891,37.09024,"united states"
"1225",-99.8124935,29.8851459,"real county, tx, usa"
"1226",-97.0403352,32.8998091,"dfw international airport (dfw), 2400 aviation dr, dfw airport, tx 75261, usa"
"1227",-96.7969879,32.7766642,"dallas, tx, usa"
"1228",-121.8863286,37.3382082,"san jose, ca, usa"
"1229",-95.712891,37.09024,"united states"
"1230",-111.0937311,39.3209801,"utah, usa"
"1231",-97.3307658,32.7554883,"fort worth, tx, usa"
"1232",-97.4286988,37.6508529,"wichita dwight d. eisenhower national airport (ict), 2277 eisenhower airport pkwy, wichita, ks 67209, usa"
"1233",-97.7430608,30.267153,"austin, tx, usa"
"1234",-111.6709584,32.7558935,"arizona city, az 85123, usa"
"1235",-78.7788498,35.7341718,"115 crescent commons suite 250, cary, nc 27518, usa"
"1236",-71.575977,42.0970667,"uxbridge rd, mendon, ma 01756, usa"
"1237",-79.9592134,40.5594832,"allison park, hampton township, pa, usa"
"1238",-84.3896373,33.7517791,"50 lower alabama street #22, atlanta, ga 30303, usa"
"1239",-80.1302936,25.7904697,"216 lincoln rd, miami beach, fl 33139, usa"
"1240",-93.2650108,44.977753,"minneapolis, mn, usa"
"1241",-95.712891,37.09024,"united states"
"1242",-99.9018131,31.9685988,"texas, usa"
"1243",-72.6850932,41.7637111,"hartford, ct, usa"
"1244",-96.13446,41.0819432,"springfield, ne 68059, usa"
"1245",-105.7820674,39.5500507,"colorado, usa"
"1246",-71.0588801,42.3600825,"boston, ma, usa"
"1247",-87.8211854,42.5847425,"kenosha, wi, usa"
"1248",-95.384954,29.855273,"6145 airline dr, houston, tx 77076, usa"
"1249",-83.1285242,40.5886699,"marion, oh 43302, usa"
"1250",-90.0715323,29.9510658,"new orleans, la, usa"
"1251",-78.8783689,42.8864468,"buffalo, ny, usa"
"1252",-95.712891,37.09024,"united states"
"1253",-149.9002778,61.2180556,"anchorage, ak, usa"
"1254",-104.8213634,38.8338816,"colorado springs, co, usa"
"1255",-97.7430608,30.267153,"austin, tx, usa"
"1256",-122.2596331,38.1238285,"480 redwood st #32, vallejo, ca 94590, usa"
"1257",-71.467566,42.7653662,"nashua, nh, usa"
"1258",-73.9464769,40.8115504,"harlem, new york, ny, usa"
"1259",-97.7430608,30.267153,"austin, tx, usa"
"1260",-119.4179324,36.778261,"california, usa"
"1261",-119.4179324,36.778261,"california, usa"
"1262",-122.3789554,37.6213129,"san francisco international airport (sfo), san francisco, ca 94128, usa"
"1263",-80.634891,35.184371,"8832 brigadier ln, mint hill, nc 28227, usa"
"1264",-76.6121893,39.2903848,"baltimore, md, usa"
"1265",-77.0340315,38.9031004,"1015 15th st nw #750, washington, dc 20005, usa"
"1266",-84.2946539,37.7478572,"richmond, ky, usa"
"1267",-97.7430608,30.267153,"austin, tx, usa"
"1268",-118.2973745,34.0130011,"1198 leighton ave, los angeles, ca 90037, usa"
"1269",-118.7797571,34.0259216,"malibu, ca, usa"
"1270",-119.4179324,36.778261,"california, usa"
"1271",-73.298408,41.7040641,"us-202, united states"
"1272",-72.6412013,42.3250896,"northampton, ma, usa"
"1273",-121.3716178,38.4087993,"elk grove, ca, usa"
"1274",-74.0059728,40.7127753,"new york, ny, usa"
"1275",-73.9182387,40.6254241,"2142 ralph ave, brooklyn, ny 11234, usa"
"1276",-95.712891,37.09024,"united states"
"1277",-83.2318054,33.0798884,"231 w hancock st, milledgeville, ga 31061, usa"
"1278",-118.542586,34.3916641,"santa clarita, ca, usa"
"1279",-81.1637245,33.836081,"south carolina, usa"
"1280",-89.4012302,43.0730517,"madison, wi, usa"
"1281",-84.5111008,39.1029873,"114 e 6th st, cincinnati, oh 45202, usa"
"1282",-118.3286614,34.0928092,"hollywood, los angeles, ca, usa"
"1283",-90.1994042,38.6270025,"st. louis, mo, usa"
"1284",-77.0368707,38.9071923,"washington, dc, usa"
"1285",-71.1786237,42.1236499,"sharon, ma, usa"
"1286",-105.5153527,38.3706368,"45 log ln dead, cotopaxi, co 81223, usa"
"1287",-93.2009998,44.9374831,"twin cities, mn, usa"
"1288",-122.0020776,37.5262979,"2086 newpark mall rd, newark, ca 94560, usa"
"1289",-95.971261,36.153315,"533 s rockford ave, tulsa, ok 74120, usa"
"1290",-111.73854,40.3641184,"pleasant grove, ut, usa"
"1291",-83.1761631,41.1154697,"71 s washington st, tiffin, oh 44883, usa"
"1292",-90.1994042,38.6270025,"st. louis, mo, usa"
"1293",-79.0192997,35.7595731,"north carolina, usa"
"1294",-79.9133816,40.465722,"larimer ave, pittsburgh, pa 15206, usa"
"1295",-71.0588801,42.3600825,"boston, ma, usa"
"1296",-95.712891,37.09024,"united states"
"1297",-96.9944489,32.482361,"midlothian, tx, usa"
"1298",-105.0749801,40.3977612,"loveland, co, usa"
"1299",-81.5157535,27.6648274,"florida, usa"
"1300",-95.9618958,36.0404924,"8330 riverside pkwy, tulsa, ok 74137, usa"
"1301",-83.2948922,36.2139814,"morristown, tn, usa"
"1302",-79.0780831,40.008411,"somerset, pa 15501, usa"
"1303",-74.3118212,41.3911653,"orange county, ny, usa"
"1304",-95.3698028,29.7604267,"houston, tx, usa"
"1305",-95.712891,37.09024,"united states"
"1306",-122.3320708,47.6062095,"seattle, wa, usa"
"1307",-83.5149023,36.2809202,"rutledge, tn 37861, usa"
"1308",-87.6297982,41.8781136,"chicago, il, usa"
"1309",-76.1783739,40.0466571,"lancaster county, pa, usa"
"1310",-104.9793907,39.7368455,"608 e 13th ave suite 1, denver, co 80203, usa"
"1311",-102.623199,32.772201,"513 cr 103, seminole, tx 79360, united states"
"1312",-123.7510225,47.750087,"olympic peninsula, washington 98331, usa"
"1313",-79.0377388,43.0962143,"niagara falls, ny, usa"
"1314",-118.377219,34.019486,"5933 bowcroft st, los angeles, ca 90016, usa"
"1315",-119.4179324,36.778261,"california, usa"
"1316",-84.4277001,33.6407282,"hartsfield-jackson atlanta international airport (atl), 6000 n terminal pkwy, atlanta, ga 30320, usa"
"1317",-81.5157535,27.6648274,"florida, usa"
"1318",-86.6540919,34.7123752,"tranquility base, huntsville, al 35805, usa"
"1319",-76.9957039,39.4235805,"20 liberty rd d, sykesville, md 21784, usa"
"1320",-118.2436849,34.0522342,"los angeles, ca, usa"
"1321",-86.2516406,33.1731716,"sylacauga, al, usa"
"1322",-86.902298,32.3182314,"alabama, usa"
"1323",-74.937139,39.0135465,"republic ln, villas, nj 08251, usa"
"1324",-77.026088,38.9906657,"silver spring, md, usa"
"1325",-84.4277001,33.6407282,"hartsfield-jackson atlanta international airport (atl), 6000 n terminal pkwy, atlanta, ga 30320, usa"
"1326",-75.1585075,40.5876009,"amsterdam, holland township, nj 08848, usa"
"1327",-121.436935,43.8729511,"57100 beaver dr # 24, sunriver, or 97707, usa"
"1328",-121.8863286,37.3382082,"san jose, ca, usa"
"1329",-118.2436849,34.0522342,"los angeles, ca, usa"
"1330",-83.7740198,35.8725599,"seymour, tn, usa"
"1331",-95.712891,37.09024,"united states"
"1332",-118.2436849,34.0522342,"los angeles, ca, usa"
"1333",-84.4838654,42.7369792,"east lansing, mi, usa"
"1334",-71.065428,42.504923,"1 new salem st, wakefield, ma 01880, usa"
"1335",-121.7114362,48.4241961,"skagit county, wa, usa"
"1336",-121.9654696,36.9711454,"1435 41st ave, capitola, ca 95010, usa"
"1337",-80.2706044,26.271192,"coral springs, fl, usa"
"1338",-75.3698895,40.0415996,"wayne, pa, usa"
"1339",-117.5931084,34.1063989,"rancho cucamonga, ca, usa"
"1340",-86.5804473,35.5174913,"tennessee, usa"
"1341",-118.2436849,34.0522342,"los angeles, ca, usa"
"1342",-87.735895,42.1080834,"winnetka, il, usa"
"1343",-119.4179324,36.778261,"california, usa"
"1344",-74.0059728,40.7127753,"new york, ny, usa"
"1345",-95.712891,37.09024,"united states"
"1346",-86.902298,32.3182314,"alabama, usa"
"1347",-73.7948516,40.7282239,"queens, ny, usa"
"1348",-82.907123,40.4172871,"ohio, usa"
"1349",-110.926479,32.2217429,"tucson, az, usa"
"1350",-86.158068,39.768403,"indianapolis, in, usa"
"1351",-112.3679279,33.6292337,"surprise, az, usa"
"1352",-87.7845025,41.8850317,"oak park, il, usa"
"1353",-75.6012002,41.3405944,"8th, pennsylvania 18444, usa"
"1354",-86.158068,39.768403,"indianapolis, in, usa"
"1355",-122.6764815,45.5230622,"portland, or, usa"
"1356",-112.0069083,42.6192183,"430 main st, lava hot springs, id 83246, usa"
"1357",-122.2710788,37.5585465,"foster city, ca, usa"
"1358",-71.4128343,41.8239891,"providence, ri, usa"
"1359",-117.1661449,33.1433723,"san marcos, ca, usa"
"1360",-122.2913078,37.8271784,"san francisco bay area, ca, usa"
"1361",-75.1068388,40.1742757,"hatboro, pa 19040, usa"
"1362",-96.0617155,33.0929274,"1763 co rd 3302, greenville, tx 75402, usa"
"1363",-105.2561166,39.98998,"44 co-93, boulder, co 80305, usa"
"1364",-87.7828523,42.7261309,"racine, wi, usa"
"1365",-95.712891,37.09024,"united states"
"1366",-119.0187125,35.3732921,"bakersfield, ca, usa"
"1367",-75.2424229,39.8743959,"philadelphia international airport (phl), 8000 essington ave, philadelphia, pa 19153, usa"
"1368",-84.4277001,33.6407282,"hartsfield-jackson atlanta international airport (atl), 6000 n terminal pkwy, atlanta, ga 30320, usa"
"1369",-109.3838725,36.9615025,"redskin blvd, teec nos pos, az 86514, usa"
"1370",-97.092877,35.0077519,"oklahoma, usa"
"1371",-88.7878678,43.7844397,"wisconsin, usa"
"1372",-74.0059728,40.7127753,"new york, ny, usa"
"1373",-77.0368707,38.9071923,"washington, dc, usa"
"1374",-69.4454689,45.253783,"maine, usa"
"1375",-94.785493,30.060823,"514 davidge st, liberty, tx 77575, usa"
"1376",-95.712891,37.09024,"united states"
"1377",-87.6297982,41.8781136,"chicago, il, usa"
"1378",-77.1945247,41.2033216,"pennsylvania, usa"
"1379",-87.5499127,41.7319051,"s houston ave, chicago, il 60617, usa"
"1380",-122.5697032,38.1074198,"novato, ca, usa"
"1381",-81.6943605,41.49932,"cleveland, oh, usa"
"1382",-91.8318334,37.9642529,"missouri, usa"
"1383",-96.9488945,32.8140177,"irving, tx, usa"
"1384",-89.9206512,35.1213511,"east memphis, memphis, tn, usa"
"1385",-88.914102,40.482914,"3201 cira dr #201, bloomington, il 61704, usa"
"1386",-93.2009998,44.9374831,"twin cities, mn, usa"
"1387",-95.857444,36.118537,"10664 e 31st st, tulsa, ok 74146, usa"
"1388",-84.3879824,33.7489954,"atlanta, ga, usa"
"1389",-93.1566107,45.0060767,"roseville, mn 55113, usa"
"1390",-74.0059728,40.7127753,"new york, ny, usa"
"1391",-116.419389,34.9592083,"southern california, ca, usa"
"1392",-102.6616977,40.1474837,"county rd 40, yuma, co 80759, usa"
"1393",-85.6023643,44.3148443,"michigan, usa"
"1394",-72.827915,41.8540094,"simsbury, ct, usa"
"1395",-81.5157535,27.6648274,"florida, usa"
"1396",-95.2860474,29.5635666,"pearland, tx, usa"
"1397",-95.712891,37.09024,"united states"
"1398",-82.9000751,32.1656221,"georgia, usa"
"1399",-83.4252673,36.0416083,"1006 epco dr, dandridge, tn 37725, usa"
"1400",-73.9983821,40.6394368,"4802 10th ave, brooklyn, ny 11219, usa"
"1401",-99.9018131,31.9685988,"texas, usa"
"1402",-95.712891,37.09024,"united states"
"1403",-74.4338269,39.359225,"9 s ohio ave, atlantic city, nj 08401, usa"
"1404",-80.0695908,36.4557487,"nc-704, north carolina, usa"
"1405",-97.092877,35.0077519,"oklahoma, usa"
"1406",-95.2356801,38.9676558,"846 massachusetts st, lawrence, ks 66044, usa"
"1407",-79.0192997,35.7595731,"north carolina, usa"
"1408",-89.3985283,32.3546679,"mississippi, usa"
"1409",-118.2436849,34.0522342,"los angeles, ca, usa"
"1410",-87.9301134,42.9308255,"1300 w college ave, milwaukee, wi 53221, usa"
"1411",-82.3248262,29.6516344,"gainesville, fl, usa"
"1412",-116.419389,34.9592083,"southern california, ca, usa"
"1413",-79.9559358,39.6361396,"morgantown, wv 26506, usa"
"1414",-87.6297982,41.8781136,"chicago, il, usa"
"1415",-73.9441579,40.6781784,"brooklyn, ny, usa"
"1416",-95.712891,37.09024,"united states"
"1417",-118.542586,34.3916641,"santa clarita, ca, usa"
"1418",-73.7176337,40.9700171,"harrison, ny, usa"
"1419",-76.2858726,36.8507689,"norfolk, va, usa"
"1420",-87.6297982,41.8781136,"chicago, il, usa"
"1421",-79.0192997,35.7595731,"north carolina, usa"
"1422",-86.5804473,35.5174913,"tennessee, usa"
"1423",-71.4774291,41.5800945,"rhode island, usa"
"1424",-73.087749,41.6032207,"connecticut, usa"
"1425",-95.2041135,32.5884735,"hawkins, tx 75765, usa"
"1426",-98.4936282,29.4241219,"san antonio, tx, usa"
"1427",-97.7430608,30.267153,"austin, tx, usa"
"1428",-80.3045967,25.8641207,"hialeah, fl 33012, usa"
"1429",-96.7969879,32.7766642,"dallas, tx, usa"
"1430",-122.0651819,37.9100783,"walnut creek, ca, usa"
"1431",-76.6121893,39.2903848,"baltimore, md, usa"
"1432",-123.4307413,48.118146,"port angeles, wa, usa"
"1433",-81.5157535,27.6648274,"florida, usa"
"1434",-87.2169149,30.421309,"pensacola, fl, usa"
"1435",-73.134961,40.789142,"long island, new york, usa"
"1436",-74.383763,40.9148209,"montville, nj, usa"
"1437",-121.8863286,37.3382082,"san jose, ca, usa"
"1438",-90.1029736,29.9603192,"1025 s jefferson davis pkwy, new orleans, la 70125, usa"
"1439",-122.3320708,47.6062095,"seattle, wa, usa"
"1440",-73.9940175,40.7270847,"10 bond st, new york, ny 10012, usa"
"1441",-95.3698028,29.7604267,"houston, tx, usa"
"1442",-118.4109089,33.8847361,"manhattan beach, ca, usa"
"1443",-87.6297982,41.8781136,"chicago, il, usa"
"1444",-96.7311034,43.5445959,"sioux falls, sd, usa"
"1445",-88.2241279,44.817436,"3946 wery rd, oconto falls, wi 54154, usa"
"1446",-74.0059728,40.7127753,"new york, ny, usa"
"1447",-72.6655757,41.6572525,"rocky hill, ct, usa"
"1448",-116.7804664,47.6776832,"coeur d'alene, id, usa"
"1449",-83.5070203,35.6531943,"great smoky mountains, united states"
"1450",-97.8756302,39.01007,"105 s main st, tescott, ks 67484, usa"
"1451",-98.4936282,29.4241219,"san antonio, tx, usa"
"1452",-95.712891,37.09024,"united states"
"1453",-117.7153335,33.6927438,"0 latitude, irvine, ca 92618, usa"
"1454",-74.4056612,40.0583238,"new jersey, usa"
"1455",-95.712891,37.09024,"united states"
"1456",-97.396381,27.8005828,"corpus christi, tx, usa"
"1457",-77.0368707,38.9071923,"washington, dc, usa"
"1458",-87.4360804,30.4142478,"lillian, al 36549, usa"
"1459",-117.9379952,33.7742692,"garden grove, ca, usa"
"1460",-86.5804473,35.5174913,"tennessee, usa"
"1461",-73.9441579,40.6781784,"brooklyn, ny, usa"
"1462",-92.9080375,42.0494674,"marshalltown, ia 50158, usa"
"1463",-83.7430378,42.2808256,"ann arbor, mi, usa"
"1464",-77.4360481,37.5407246,"richmond, va, usa"
"1465",-78.6381787,35.7795897,"raleigh, nc, usa"
"1466",-78.898619,35.9940329,"durham, nc, usa"
"1467",-122.2913078,37.8271784,"san francisco bay area, ca, usa"
"1468",-93.3539268,44.9293924,"3981 zarthan ave s, minneapolis, mn 55416, usa"
"1469",-82.4734787,36.2942722,"jonesborough, tn 37659, usa"
"1470",-97.6779842,30.6332618,"georgetown, tx, usa"
"1471",-71.0475773,42.3381437,"south boston, boston, ma, usa"
"1472",-122.8670454,45.4942838,"aloha, or, usa"
"1473",-84.3879824,33.7489954,"atlanta, ga, usa"
"1474",-72.5198537,42.3732216,"amherst, ma, usa"
"1475",-94.5785667,39.0997265,"kansas city, mo, usa"
"1476",-87.6297982,41.8781136,"chicago, il, usa"
"1477",-85.3863599,40.1933767,"muncie, in, usa"
"1478",-122.4194155,37.7749295,"san francisco, ca, usa"
"1479",-95.712891,37.09024,"united states"
"1480",-93.6341514,42.0065333,"815 isu c dr, ames, ia 50010, usa"
"1481",-111.0937311,34.0489281,"arizona, usa"
"1482",-70.8226541,43.9653889,"new england, usa"
"1483",-87.6297982,41.8781136,"chicago, il, usa"
"1484",-122.4194155,37.7749295,"san francisco, ca, usa"
"1485",-122.2711137,37.8043637,"oakland, ca, usa"
"1486",-81.724004,41.4196115,"5700 brookpark rd, cleveland, oh 44129, usa"
"1487",-77.1710914,38.882334,"falls church, va, usa"
"1488",-84.1051939,33.7123305,"lithonia, ga 30058, usa"
"1489",-95.712891,37.09024,"united states"
"1490",-97.0583681,36.1156071,"stillwater, ok, usa"
"1491",-96.5991593,32.7667955,"mesquite, tx, usa"
"1492",-91.9623327,30.9842977,"louisiana, usa"
"1493",-97.3307658,32.7554883,"fort worth, tx, usa"
"1494",-95.712891,37.09024,"united states"
"1495",-81.5981799,40.707003,"brewster, oh, usa"
"1496",-81.4735257,28.4720521,"orlando, fl 32819, usa"
"1497",-122.0307963,36.9741171,"santa cruz, ca, usa"
"1498",-84.5169757,39.2177925,"finneytown, oh, usa"
"1499",-75.9652117,40.329537,"wyomissing, pa, usa"
"1500",-82.907123,40.4172871,"ohio, usa"
"1501",-73.9464769,40.8115504,"harlem, new york, ny, usa"
"1502",-73.7836365,40.9073297,"566 main st, new rochelle, ny 10801, usa"
"1503",-97.7430608,30.267153,"austin, tx, usa"
"1504",-111.0937311,34.0489281,"arizona, usa"
"1505",-91.8318334,37.9642529,"missouri, usa"
"1506",-78.898619,35.9940329,"durham, nc, usa"
"1507",-87.6297982,41.8781136,"chicago, il, usa"
"1508",-76.8867008,40.2731911,"harrisburg, pa, usa"
"1509",-97.7430608,30.267153,"austin, tx, usa"
"1510",-122.6764815,45.5230622,"portland, or, usa"
"1511",-121.8946761,36.6002378,"monterey, ca, usa"
"1512",-94.6858998,46.729553,"minnesota, usa"
"1513",-73.9849828,40.7517807,"48 w 38th st, new york, ny 10018, usa"
"1514",-79.0558445,35.9131996,"chapel hill, nc, usa"
"1515",-95.3698028,29.7604267,"houston, tx, usa"
"1516",-95.712891,37.09024,"united states"
"1517",-87.6297982,41.8781136,"chicago, il, usa"
"1518",-78.8783689,42.8864468,"buffalo, ny, usa"
"1519",-105.7820674,39.5500507,"colorado, usa"
"1520",-69.4454689,45.253783,"maine, usa"
"1521",-104.9398068,39.6676011,"2720 s colorado blvd #708, denver, co 80222, usa"
"1522",-115.1398296,36.1699412,"las vegas, nv, usa"
"1523",-122.2416355,37.7652065,"alameda, ca, usa"
"1524",-73.8648268,40.8447819,"bronx, ny, usa"
"1525",-84.3879824,33.7489954,"atlanta, ga, usa"
"1526",-97.7842319,30.2063488,"5616 s 1st st #13, austin, tx 78745, usa"
"1527",-118.2436849,34.0522342,"los angeles, ca, usa"
"1528",-84.2807329,30.4382559,"tallahassee, fl, usa"
"1529",-119.4179324,36.778261,"california, usa"
"1530",-91.9623327,30.9842977,"louisiana, usa"
"1531",-81.5157535,27.6648274,"florida, usa"
"1532",-77.0469214,38.8048355,"alexandria, va, usa"
"1533",-88.7878678,43.7844397,"wisconsin, usa"
"1534",-108.7306725,42.833014,"lander, wy 82520, usa"
"1535",-74.0059728,40.7127753,"new york, ny, usa"
"1536",-99.9018131,31.9685988,"texas, usa"
"1537",-87.6297982,41.8781136,"chicago, il, usa"
"1538",-76.662988,34.715291,"617 front st, beaufort, nc 28516, usa"
"1539",-122.7094767,42.1945758,"ashland, or 97520, usa"
"1540",-111.0937311,34.0489281,"arizona, usa"
"1541",-75.0760137,38.7209454,"rehoboth beach, de, usa"
"1542",-77.0272517,38.8981403,"1100 g st nw #805, washington, dc 20005, usa"
"1543",-121.8385392,36.9664091,"oz ln, watsonville, ca 95076, usa"
"1544",-77.0718248,38.9284816,"3101 wisconsin ave nw, washington, dc 20016, usa"
"1545",-96.3344068,30.627977,"college station, tx, usa"
"1546",-74.0059728,40.7127753,"new york, ny, usa"
"1547",-122.4355989,37.7987026,"3138 fillmore st, san francisco, ca 94123, usa"
"1548",-83.4112678,42.4978212,"secluded ln & twelve mile rd, farmington hills, mi 48331, usa"
"1549",-158.0832343,21.5318703,"hi-803, waialua, hi 96791, usa"
"1550",-74.231439,40.8656829,"150 commerce rd, cedar grove, nj 07009, usa"
"1551",-77.0368707,38.9071923,"washington, dc, usa"
"1552",-110.926479,32.2217429,"tucson, az, usa"
"1553",-95.712891,37.09024,"united states"
"1554",-81.5157535,27.6648274,"florida, usa"
"1555",-102.4107493,34.2331373,"earth, tx 79031, usa"
"1556",-74.2097014,40.082129,"lakewood township, nj 08701, usa"
"1557",-77.1945247,41.2033216,"pennsylvania, usa"
"1558",-95.712891,37.09024,"united states"
"1559",-116.0967013,44.9079558,"613 n 3rd st #610, mccall, id 83638, usa"
"1560",-82.6015206,34.829838,"easley, sc, usa"
"1561",-112.3679279,33.6292337,"surprise, az, usa"
"1562",-84.3879824,33.7489954,"atlanta, ga, usa"
"1563",-86.3619163,32.4798575,"millbrook, al, usa"
"1564",-84.2940899,34.0753762,"alpharetta, ga, usa"
"1565",-96.8743039,32.7098737,"3025-3027 s westmoreland rd, dallas, tx 75233, usa"
"1566",-117.1712155,32.7505344,"4033 goldfinch st, san diego, ca 92103, usa"
"1567",-72.6850932,41.7637111,"hartford, ct, usa"
"1568",-122.4194155,37.7749295,"san francisco, ca, usa"
"1569",-121.4943996,38.5815719,"sacramento, ca, usa"
"1570",-95.712891,37.09024,"united states"
"1571",-86.158068,39.768403,"indianapolis, in, usa"
"1572",-119.4179324,36.778261,"california, usa"
"1573",-122.3320708,47.6062095,"seattle, wa, usa"
"1574",-87.9334803,44.4561674,"brown county, wi, usa"
"1575",-112.0245054,46.5883707,"helena, mt, usa"
"1576",-96.7969879,32.7766642,"dallas, tx, usa"
"1577",-119.4179324,36.778261,"california, usa"
"1578",-78.9357375,35.96604,"kamis st, durham, nc 27707, usa"
"1579",-80.1917902,25.7616798,"miami, fl, usa"
"1580",-90.038134,35.145116,"664 adams ave, memphis, tn 38105, usa"
"1581",-93.2774855,38.7137078,"us-50, sedalia, mo 65301, usa"
"1582",-94.6858998,46.729553,"minnesota, usa"
"1583",-87.0611412,41.4730948,"valparaiso, in, usa"
"1584",-82.4249142,42.9708634,"port huron, mi, usa"
"1585",-84.1916069,39.7589478,"dayton, oh, usa"
"1586",-80.3247935,36.9183018,"220 webbs mill rd n, floyd, va 24091, usa"
"1587",-85.6023643,44.3148443,"michigan, usa"
"1588",-99.9018131,31.9685988,"texas, usa"
"1589",-75.4883285,40.6794162,"1001 main st, northampton, pa 18067, usa"
"1590",-74.4056612,40.0583238,"new jersey, usa"
"1591",-77.0909809,38.8816208,"arlington county, arlington, va, usa"
"1592",-86.7827772,36.0331164,"brentwood, tn, usa"
"1593",-73.9992966,40.7453369,"312-320 w 23rd st la, new york, ny 10011, usa"
"1594",-81.5157535,27.6648274,"florida, usa"
"1595",-99.9018131,31.9685988,"texas, usa"
"1596",-93.3860853,45.112059,"8616 xylon ave n # m, minneapolis, mn 55445, usa"
"1597",-82.907123,40.4172871,"ohio, usa"
"1598",-122.7439395,38.4248296,"keegan dr, santa rosa, ca 95407, usa"
"1599",-80.0533746,26.7153424,"west palm beach, fl, usa"
"1600",-118.2436849,34.0522342,"los angeles, ca, usa"
"1601",-71.061361,42.364205,"155 portland st, boston, ma 02114, usa"
"1602",-121.8410742,48.276958,"wa-530, washington, usa"
"1603",-116.419389,34.9592083,"southern california, ca, usa"
"1604",-73.9066342,40.9892658,"palisades interstate park commission: state line lookout, palisades interstate pkwy, alpine, nj 07620, usa"
"1605",-87.9079264,43.0378084,"611 n broadway suite 100, milwaukee, wi 53202, usa"
"1606",-99.9018131,31.9685988,"texas, usa"
"1607",-80.1373174,26.1224386,"fort lauderdale, fl, usa"
"1608",-95.1765978,29.9988306,"atascocita, tx, usa"
"1609",-74.3882072,40.787878,"florham park, nj, usa"
"1610",-76.6412712,39.0457549,"maryland, usa"
"1611",-86.2604102,39.7644337,"10 s mickley ave, indianapolis, in 46241, usa"
"1612",-106.3967465,39.6418217,"953 s frontage rd w #103, vail, co 81657, usa"
"1613",-86.1612899,39.7211519,"147 tri sab ln, indianapolis, in 46217, usa"
"1614",-77.0368707,38.9071923,"washington, dc, usa"
"1615",-81.5582714,28.3575294,"351 s studio dr, lake buena vista, fl 32830, usa"
"1616",-74.0059728,40.7127753,"new york, ny, usa"
"1617",-94.77032,38.85953,"14800 s arapaho dr, olathe, ks 66062, usa"
"1618",-76.229587,36.789225,"825 greenbrier circle p, chesapeake, va 23320, united states"
"1619",-74.0059728,40.7127753,"new york, ny, usa"
"1620",-83.7430378,42.2808256,"ann arbor, mi, usa"
"1621",-73.975694,40.8270448,"edgewater, nj 07020, usa"
"1622",-74.0059728,40.7127753,"new york, ny, usa"
"1623",-99.9018131,41.4925374,"nebraska, usa"
"1624",-77.0368707,38.9071923,"washington, dc, usa"
"1625",-82.907123,40.4172871,"ohio, usa"
"1626",-111.0937311,39.3209801,"utah, usa"
"1627",-117.4260465,47.6587802,"spokane, wa, usa"
"1628",-97.7430608,30.267153,"austin, tx, usa"
"1629",-81.4732881,35.1662128,"3 watterson rd, grover, sc 28073, usa"
"1630",-122.2913078,37.8271784,"san francisco bay area, ca, usa"
"1631",-119.0187125,35.3732921,"bakersfield, ca, usa"
"1632",-76.7083033,40.2653681,"hummelstown, pa 17036, usa"
"1633",-82.9000751,32.1656221,"georgia, usa"
"1634",-122.4194155,37.7749295,"san francisco, ca, usa"
"1635",-77.0368707,38.9071923,"washington, dc, usa"
"1636",-81.6943605,41.49932,"cleveland, oh, usa"
"1637",-91.0709371,30.3626927,"the shire, baton rouge, la 70810, usa"
"1638",-118.369159,34.0757497,"8230 beverly blvd #11, los angeles, ca 90048, usa"
"1639",-80.7312862,36.30256,"415 always acres trail, elkin, nc 28621, usa"
"1640",-110.926479,32.2217429,"tucson, az, usa"
"1641",-95.712891,37.09024,"united states"
"1642",-77.0368707,38.9071923,"washington, dc, usa"
"1643",-82.4012642,40.0581205,"newark, oh, usa"
"1644",-117.7499909,34.055103,"pomona, ca, usa"
"1645",-119.6981901,34.4208305,"santa barbara, ca, usa"
"1646",-119.4179324,36.778261,"california, usa"
"1647",-74.0434736,40.8859325,"hackensack, nj, usa"
"1648",-82.9987942,39.9611755,"columbus, oh, usa"
"1649",-94.419722,39.245903,"15 e kansas st #210, liberty, mo 64068, usa"
"1650",-111.0937311,39.3209801,"utah, usa"
"1651",-80.1917902,25.7616798,"miami, fl, usa"
"1652",-90.0489801,35.1495343,"memphis, tn, usa"
"1653",-88.0384195,42.888627,"franklin, wi 53132, usa"
"1654",-91.1403196,30.4582829,"baton rouge, la, usa"
"1655",-85.7731213,30.1857096,"7940 front beach rd #1007, panama city beach, fl 32407, usa"
"1656",-120.672395,35.1552532,"shell beach, pismo beach, ca 93449, usa"
"1657",-76.1319953,39.0263572,"queen anne's county, md, usa"
"1658",-74.0059728,40.7127753,"new york, ny, usa"
"1659",-82.4571776,27.950575,"tampa, fl, usa"
"1660",-95.712891,37.09024,"united states"
"1661",-79.9310512,32.7764749,"charleston, sc, usa"
"1662",-83.0457538,42.331427,"detroit, mi, usa"
"1663",-112.0740373,33.4483771,"phoenix, az, usa"
"1664",-91.1403196,30.4582829,"baton rouge, la, usa"
"1665",-82.9987942,39.9611755,"columbus, oh, usa"
"1666",-122.788377,45.4604,"6-a, 8082 sw nimbus ave, beaverton, or 97008, united states"
"1667",-84.3879824,33.7489954,"atlanta, ga, usa"
"1668",-87.6297982,41.8781136,"chicago, il, usa"
"1669",-77.2405153,39.1547426,"montgomery county, md, usa"
"1670",-97.7430608,30.267153,"austin, tx, usa"
"1671",-77.0469214,38.8048355,"alexandria, va, usa"
"1672",-122.6764815,45.5230622,"portland, or, usa"
"1673",-71.4774291,41.5800945,"rhode island, usa"
"1674",-84.170196,33.8081608,"stone mountain, ga, usa"
"1675",-77.0909809,38.8816208,"arlington county, arlington, va, usa"
"1676",-80.8428504,35.410694,"huntersville, nc 28078, usa"
"1677",-74.065479,40.1784214,"2600 belmar blvd, wall township, nj 07719, usa"
"1678",-74.0059728,40.7127753,"new york, ny, usa"
"1679",-77.6109219,43.16103,"rochester, ny, usa"
"1680",-71.4774291,41.5800945,"rhode island, usa"
"1681",-74.8148894,38.9917797,"wildwood, nj 08260, usa"
"1682",-73.087749,41.6032207,"connecticut, usa"
"1683",-78.6381787,35.7795897,"raleigh, nc, usa"
"1684",-77.8600012,40.7933949,"state college, pa, usa"
"1685",-118.2436849,34.0522342,"los angeles, ca, usa"
"1686",-71.0588801,42.3600825,"boston, ma, usa"
"1687",-84.7602933,38.555909,"ky-845, owenton, ky 40359, usa"
"1688",-74.0059728,40.7127753,"new york, ny, usa"
"1689",-97.333486,32.748016,"500 w 13th st, fort worth, tx 76102, usa"
"1690",-105.7820674,39.5500507,"colorado, usa"
"1691",-81.5605083,28.3593133,"walt disney records, kissimmee, fl 34747, usa"
"1692",-97.135173,32.549858,"123 sentry dr, mansfield, tx 76063, usa"
"1693",-106.6055534,35.0853336,"albuquerque, nm, usa"
"1694",-75.4142592,40.6314858,"central railroad of new jersey, pennsylvania, usa"
"1695",-95.370026,35.7475692,"125 s main st, muskogee, ok 74401, usa"
"1696",-84.4118579,33.7505746,"156 mildred st sw, atlanta, ga 30314, usa"
"1697",-117.9544069,33.7090212,"fountain valley, ca 92708, usa"
"1698",-77.0368707,38.9071923,"washington, dc, usa"
"1699",-97.6961026,26.1906306,"harlingen, tx, usa"
"1700",-117.1610838,32.715738,"san diego, ca, usa"
"1701",-84.3879824,33.7489954,"atlanta, ga, usa"
"1702",-74.921561,38.933058,"526 washington st, cape may, nj 08204, usa"
"1703",-74.0059728,40.7127753,"new york, ny, usa"
"1704",-77.0368707,38.9071923,"washington, dc, usa"
"1705",-117.1610838,32.715738,"san diego, ca, usa"
"1706",-85.3863599,40.1933767,"muncie, in, usa"
"1707",-87.3376919,41.4465248,"111 w 94th pl, crown point, in 46307, usa"
"1708",-75.768132,39.6795242,"800 barksdale rd, newark, de 19711, usa"
"1709",-81.5157535,27.6648274,"florida, usa"
"1710",-122.4194155,37.7749295,"san francisco, ca, usa"
"1711",-75.1652215,39.9525839,"philadelphia, pa, usa"
"1712",-86.80249,33.5206608,"birmingham, al, usa"
"1713",-77.0368707,38.9071923,"washington, dc, usa"
"1714",-95.712891,37.09024,"united states"
"1715",-77.5218127,37.5735567,"po box 17111, richmond, va 23226, usa"
"1716",-118.2922461,33.7360619,"san pedro, los angeles, ca, usa"
"1717",-74.0059728,40.7127753,"new york, ny, usa"
"1718",-72.589811,42.1014831,"springfield, ma, usa"
"1719",-117.6910117,33.5273114,"25142 hidden hills rd, laguna niguel, ca 92677, usa"
"1720",-94.7404891,32.5007037,"longview, tx, usa"
"1721",-76.7570041,38.9862428,"6915 laurel bowie rd #201, bowie, md 20715, usa"
"1722",-97.3307658,32.7554883,"fort worth, tx, usa"
"1723",-73.7562317,42.6525793,"albany, ny, usa"
"1724",-73.9464769,40.8115504,"harlem, new york, ny, usa"
"1725",-122.2913078,37.8271784,"san francisco bay area, ca, usa"
"1726",-99.9018131,31.9685988,"texas, usa"
"1727",-122.3320708,47.6062095,"seattle, wa, usa"
"1728",-120.8958242,38.8375215,"northern california, ca, usa"
"1729",-96.7969879,32.7766642,"dallas, tx, usa"
"1730",-95.712891,37.09024,"united states"
"1731",-72.5594036,42.8522077,"16 harmony place, brattleboro, vt 05301, usa"
"1732",-83.9207392,35.9606384,"knoxville, tn, usa"
"1733",-84.3879824,33.7489954,"atlanta, ga, usa"
"1734",-86.954437,33.4017766,"bessemer, al, usa"
"1735",-76.1804843,42.6011813,"cortland, ny 13045, usa"
"1736",-86.32591,36.178525,"100 physician's way #110, lebanon, tn 37090, usa"
"1737",-86.2999689,32.3668052,"montgomery, al, usa"
"1738",-83.2218731,42.4733688,"southfield, mi, usa"
"1739",-118.2436849,34.0522342,"los angeles, ca, usa"
"1740",-120.7930978,38.7300872,"681 main st, placerville, ca 95667, usa"
"1741",-95.712891,37.09024,"united states"
"1742",-74.0059728,40.7127753,"new york, ny, usa"
"1743",-84.3879824,33.7489954,"atlanta, ga, usa"
"1744",-85.6023643,44.3148443,"michigan, usa"
"1745",-77.0368707,38.9071923,"washington, dc, usa"
"1746",-95.712891,37.09024,"united states"
"1747",-93.6091064,41.6005448,"des moines, ia, usa"
"1748",-91.9206505,44.9028713,"1801 wakanda st ne, menomonie, wi 54751, usa"
"1749",-87.6297982,41.8781136,"chicago, il, usa"
"1750",-91.9623327,30.9842977,"louisiana, usa"
"1751",-74.511172,40.3025907,"cranbury township, nj, usa"
"1752",-91.1403196,30.4582829,"baton rouge, la, usa"
"1753",-86.2999689,32.3668052,"montgomery, al, usa"
"1754",-78.8689155,38.4495688,"harrisonburg, va, usa"
"1755",-93.2650108,44.977753,"minneapolis, mn, usa"
"1756",-74.0059728,40.7127753,"new york, ny, usa"
"1757",-78.4766781,38.0293059,"charlottesville, va, usa"
"1758",-82.6618424,40.8814452,"shelby, oh 44875, usa"
"1759",-76.6121893,39.2903848,"baltimore, md, usa"
"1760",-98.5195891,40.0890046,"red cloud, ne 68970, usa"
"1761",-95.712891,37.09024,"united states"
"1762",-74.0059728,40.7127753,"new york, ny, usa"
"1763",-158.0000565,21.4389123,"o‚Äòahu, hawaii, usa"
"1764",-83.0457538,42.331427,"detroit, mi, usa"
"1765",-76.8610462,39.2037144,"columbia, md, usa"
"1766",-70.8967155,42.51954,"salem, ma, usa"
"1767",-83.8888647,43.5944677,"bay city, mi, usa"
"1768",-83.0457538,42.331427,"detroit, mi, usa"
"1769",-77.0368707,38.9071923,"washington, dc, usa"
"1770",-119.4179324,36.778261,"california, usa"
"1771",-74.0059728,40.7127753,"new york, ny, usa"
"1772",-95.712891,37.09024,"united states"
"1773",-77.1527578,39.0839973,"rockville, md, usa"
"1774",-71.0994968,42.3875968,"somerville, ma, usa"
"1775",-95.712891,37.09024,"united states"
"1776",-122.6764815,45.5230622,"portland, or, usa"
"1777",-72.5778415,44.5588028,"vermont, usa"
"1778",-121.9780153,37.7799273,"san ramon, ca, usa"
"1779",-83.0457538,42.331427,"detroit, mi, usa"
"1780",-81.655651,30.3321838,"jacksonville, fl, usa"
"1781",-78.871348,35.819905,"3040 carpenter upchurch rd, cary, nc 27519, usa"
"1782",-73.9441579,40.6781784,"brooklyn, ny, usa"
"1783",-81.5157535,27.6648274,"florida, usa"
"1784",-84.3879824,33.7489954,"atlanta, ga, usa"
"1785",-99.9018131,31.9685988,"texas, usa"
"1786",-95.712891,37.09024,"united states"
"1787",-95.9618958,36.0404924,"8330 riverside pkwy, tulsa, ok 74137, usa"
